{
  "名古屋": {
    "lat": 35.170694,
    "lon": 136.881637,
    "edges": [
      {
        "station": "金山",
        "line": "JR中央本線",
        "station_cd": "1141102",
        "line_cd": "11411"
      },
      {
        "station": "尾頭橋",
        "line": "JR東海道本線",
        "station_cd": "1150232",
        "line_cd": "11502"
      },
      {
        "station": "枇杷島",
        "line": "JR東海道本線",
        "station_cd": "1150234",
        "line_cd": "11502"
      },
      {
        "station": "亀島",
        "line": "地下鉄東山線",
        "station_cd": "9951307",
        "line_cd": "99513"
      },
      {
        "station": "伏見",
        "line": "地下鉄東山線",
        "station_cd": "9951309",
        "line_cd": "99513"
      },
      {
        "station": "太閤通",
        "line": "地下鉄桜通線",
        "station_cd": "9951701",
        "line_cd": "99517"
      },
      {
        "station": "国際センター",
        "line": "地下鉄桜通線",
        "station_cd": "9951703",
        "line_cd": "99517"
      }
    ]
  },
  "金山": {
    "lat": 35.142928,
    "lon": 136.900517,
    "edges": [
      {
        "station": "名古屋",
        "line": "JR中央本線",
        "station_cd": "1141101",
        "line_cd": "11411"
      },
      {
        "station": "鶴舞",
        "line": "JR中央本線",
        "station_cd": "1141103",
        "line_cd": "11411"
      },
      {
        "station": "熱田",
        "line": "JR東海道本線",
        "station_cd": "1150230",
        "line_cd": "11502"
      },
      {
        "station": "尾頭橋",
        "line": "JR東海道本線",
        "station_cd": "1150232",
        "line_cd": "11502"
      },
      {
        "station": "神宮前",
        "line": "名鉄名古屋本線",
        "station_cd": "3000133",
        "line_cd": "30001"
      },
      {
        "station": "山王",
        "line": "名鉄名古屋本線",
        "station_cd": "3000135",
        "line_cd": "30001"
      },
      {
        "station": "山王",
        "line": "名鉄常滑線",
        "station_cd": "3000802",
        "line_cd": "30008"
      },
      {
        "station": "神宮前",
        "line": "名鉄常滑線",
        "station_cd": "3000804",
        "line_cd": "30008"
      },
      {
        "station": "東別院",
        "line": "地下鉄名城線",
        "station_cd": "9951412",
        "line_cd": "99514"
      },
      {
        "station": "西高蔵",
        "line": "地下鉄名城線",
        "station_cd": "9951414",
        "line_cd": "99514"
      },
      {
        "station": "日比野",
        "line": "地下鉄名港線",
        "station_cd": "9951502",
        "line_cd": "99515"
      }
    ]
  },
  "鶴舞": {
    "lat": 35.156416,
    "lon": 136.917436,
    "edges": [
      {
        "station": "金山",
        "line": "JR中央本線",
        "station_cd": "1141102",
        "line_cd": "11411"
      },
      {
        "station": "千種",
        "line": "JR中央本線",
        "station_cd": "1141104",
        "line_cd": "11411"
      },
      {
        "station": "上前津",
        "line": "地下鉄鶴舞線",
        "station_cd": "9951609",
        "line_cd": "99516"
      },
      {
        "station": "荒畑",
        "line": "地下鉄鶴舞線",
        "station_cd": "9951611",
        "line_cd": "99516"
      }
    ]
  },
  "千種": {
    "lat": 35.170168,
    "lon": 136.930665,
    "edges": [
      {
        "station": "鶴舞",
        "line": "JR中央本線",
        "station_cd": "1141103",
        "line_cd": "11411"
      },
      {
        "station": "大曽根",
        "line": "JR中央本線",
        "station_cd": "1141105",
        "line_cd": "11411"
      },
      {
        "station": "新栄町",
        "line": "地下鉄東山線",
        "station_cd": "9951311",
        "line_cd": "99513"
      },
      {
        "station": "今池",
        "line": "地下鉄東山線",
        "station_cd": "9951313",
        "line_cd": "99513"
      }
    ]
  },
  "大曽根": {
    "lat": 35.191508,
    "lon": 136.937161,
    "edges": [
      {
        "station": "千種",
        "line": "JR中央本線",
        "station_cd": "1141104",
        "line_cd": "11411"
      },
      {
        "station": "新守山",
        "line": "JR中央本線",
        "station_cd": "1141106",
        "line_cd": "11411"
      },
      {
        "station": "森下",
        "line": "名鉄瀬戸線",
        "station_cd": "3001205",
        "line_cd": "30012"
      },
      {
        "station": "矢田",
        "line": "名鉄瀬戸線",
        "station_cd": "3001207",
        "line_cd": "30012"
      },
      {
        "station": "ナゴヤドーム前矢田",
        "line": "地下鉄名城線",
        "station_cd": "9951401",
        "line_cd": "99514"
      },
      {
        "station": "平安通",
        "line": "地下鉄名城線",
        "station_cd": "9951403",
        "line_cd": "99514"
      }
    ]
  },
  "新守山": {
    "lat": 35.207283,
    "lon": 136.951207,
    "edges": [
      {
        "station": "大曽根",
        "line": "JR中央本線",
        "station_cd": "1141105",
        "line_cd": "11411"
      },
      {
        "station": "勝川",
        "line": "JR中央本線",
        "station_cd": "1141107",
        "line_cd": "11411"
      }
    ]
  },
  "勝川": {
    "lat": 35.22982,
    "lon": 136.956285,
    "edges": [
      {
        "station": "新守山",
        "line": "JR中央本線",
        "station_cd": "1141106",
        "line_cd": "11411"
      },
      {
        "station": "春日井",
        "line": "JR中央本線",
        "station_cd": "1141108",
        "line_cd": "11411"
      }
    ]
  },
  "春日井": {
    "lat": 35.243139,
    "lon": 136.985307,
    "edges": [
      {
        "station": "勝川",
        "line": "JR中央本線",
        "station_cd": "1141107",
        "line_cd": "11411"
      },
      {
        "station": "神領",
        "line": "JR中央本線",
        "station_cd": "1141109",
        "line_cd": "11411"
      },
      {
        "station": "味美",
        "line": "名鉄小牧線",
        "station_cd": "3001803",
        "line_cd": "30018"
      },
      {
        "station": "牛山",
        "line": "名鉄小牧線",
        "station_cd": "3001805",
        "line_cd": "30018"
      }
    ]
  },
  "神領": {
    "lat": 35.256234,
    "lon": 137.010006,
    "edges": [
      {
        "station": "春日井",
        "line": "JR中央本線",
        "station_cd": "1141108",
        "line_cd": "11411"
      },
      {
        "station": "高蔵寺",
        "line": "JR中央本線",
        "station_cd": "1141110",
        "line_cd": "11411"
      }
    ]
  },
  "高蔵寺": {
    "lat": 35.26434,
    "lon": 137.043766,
    "edges": [
      {
        "station": "神領",
        "line": "JR中央本線",
        "station_cd": "1141109",
        "line_cd": "11411"
      },
      {
        "station": "定光寺",
        "line": "JR中央本線",
        "station_cd": "1141111",
        "line_cd": "11411"
      }
    ]
  },
  "定光寺": {
    "lat": 35.278015,
    "lon": 137.080981,
    "edges": [
      {
        "station": "高蔵寺",
        "line": "JR中央本線",
        "station_cd": "1141110",
        "line_cd": "11411"
      }
    ]
  },
  "二川": {
    "lat": 34.725809,
    "lon": 137.438966,
    "edges": [
      {
        "station": "豊橋",
        "line": "JR東海道本線",
        "station_cd": "1150210",
        "line_cd": "11502"
      }
    ]
  },
  "豊橋": {
    "lat": 34.762734,
    "lon": 137.382128,
    "edges": [
      {
        "station": "二川",
        "line": "JR東海道本線",
        "station_cd": "1150209",
        "line_cd": "11502"
      },
      {
        "station": "西小坂井",
        "line": "JR東海道本線",
        "station_cd": "1150211",
        "line_cd": "11502"
      },
      {
        "station": "伊奈",
        "line": "名鉄名古屋本線",
        "station_cd": "3000102",
        "line_cd": "30001"
      }
    ]
  },
  "西小坂井": {
    "lat": 34.79708,
    "lon": 137.352499,
    "edges": [
      {
        "station": "豊橋",
        "line": "JR東海道本線",
        "station_cd": "1150210",
        "line_cd": "11502"
      },
      {
        "station": "愛知御津",
        "line": "JR東海道本線",
        "station_cd": "1150212",
        "line_cd": "11502"
      }
    ]
  },
  "愛知御津": {
    "lat": 34.812624,
    "lon": 137.316492,
    "edges": [
      {
        "station": "西小坂井",
        "line": "JR東海道本線",
        "station_cd": "1150211",
        "line_cd": "11502"
      },
      {
        "station": "三河大塚",
        "line": "JR東海道本線",
        "station_cd": "1150213",
        "line_cd": "11502"
      }
    ]
  },
  "三河大塚": {
    "lat": 34.815744,
    "lon": 137.28287,
    "edges": [
      {
        "station": "愛知御津",
        "line": "JR東海道本線",
        "station_cd": "1150212",
        "line_cd": "11502"
      },
      {
        "station": "三河三谷",
        "line": "JR東海道本線",
        "station_cd": "1150214",
        "line_cd": "11502"
      }
    ]
  },
  "三河三谷": {
    "lat": 34.818546,
    "lon": 137.247795,
    "edges": [
      {
        "station": "三河大塚",
        "line": "JR東海道本線",
        "station_cd": "1150213",
        "line_cd": "11502"
      },
      {
        "station": "蒲郡",
        "line": "JR東海道本線",
        "station_cd": "1150215",
        "line_cd": "11502"
      }
    ]
  },
  "蒲郡": {
    "lat": 34.823078,
    "lon": 137.226459,
    "edges": [
      {
        "station": "三河三谷",
        "line": "JR東海道本線",
        "station_cd": "1150214",
        "line_cd": "11502"
      },
      {
        "station": "三河塩津",
        "line": "JR東海道本線",
        "station_cd": "1150216",
        "line_cd": "11502"
      },
      {
        "station": "蒲郡競艇場前",
        "line": "名鉄蒲郡線",
        "station_cd": "3000409",
        "line_cd": "30004"
      }
    ]
  },
  "三河塩津": {
    "lat": 34.825295,
    "lon": 137.201261,
    "edges": [
      {
        "station": "蒲郡",
        "line": "JR東海道本線",
        "station_cd": "1150215",
        "line_cd": "11502"
      },
      {
        "station": "三ケ根",
        "line": "JR東海道本線",
        "station_cd": "1150217",
        "line_cd": "11502"
      }
    ]
  },
  "三ケ根": {
    "lat": 34.836449,
    "lon": 137.176348,
    "edges": [
      {
        "station": "三河塩津",
        "line": "JR東海道本線",
        "station_cd": "1150216",
        "line_cd": "11502"
      },
      {
        "station": "幸田",
        "line": "JR東海道本線",
        "station_cd": "1150218",
        "line_cd": "11502"
      }
    ]
  },
  "幸田": {
    "lat": 34.859926,
    "lon": 137.16447,
    "edges": [
      {
        "station": "三ケ根",
        "line": "JR東海道本線",
        "station_cd": "1150217",
        "line_cd": "11502"
      },
      {
        "station": "相見",
        "line": "JR東海道本線",
        "station_cd": "1150242",
        "line_cd": "11502"
      }
    ]
  },
  "相見": {
    "lat": 34.886833,
    "lon": 137.160389,
    "edges": [
      {
        "station": "幸田",
        "line": "JR東海道本線",
        "station_cd": "1150218",
        "line_cd": "11502"
      },
      {
        "station": "岡崎",
        "line": "JR東海道本線",
        "station_cd": "1150219",
        "line_cd": "11502"
      }
    ]
  },
  "岡崎": {
    "lat": 34.925417,
    "lon": 137.157243,
    "edges": [
      {
        "station": "西岡崎",
        "line": "JR東海道本線",
        "station_cd": "1150220",
        "line_cd": "11502"
      },
      {
        "station": "相見",
        "line": "JR東海道本線",
        "station_cd": "1150242",
        "line_cd": "11502"
      }
    ]
  },
  "西岡崎": {
    "lat": 34.946572,
    "lon": 137.123187,
    "edges": [
      {
        "station": "岡崎",
        "line": "JR東海道本線",
        "station_cd": "1150219",
        "line_cd": "11502"
      },
      {
        "station": "安城",
        "line": "JR東海道本線",
        "station_cd": "1150221",
        "line_cd": "11502"
      }
    ]
  },
  "安城": {
    "lat": 34.959986,
    "lon": 137.08716,
    "edges": [
      {
        "station": "西岡崎",
        "line": "JR東海道本線",
        "station_cd": "1150220",
        "line_cd": "11502"
      },
      {
        "station": "三河安城",
        "line": "JR東海道本線",
        "station_cd": "1150222",
        "line_cd": "11502"
      }
    ]
  },
  "三河安城": {
    "lat": 34.96968,
    "lon": 137.060918,
    "edges": [
      {
        "station": "安城",
        "line": "JR東海道本線",
        "station_cd": "1150221",
        "line_cd": "11502"
      },
      {
        "station": "東刈谷",
        "line": "JR東海道本線",
        "station_cd": "1150223",
        "line_cd": "11502"
      }
    ]
  },
  "東刈谷": {
    "lat": 34.97741,
    "lon": 137.043525,
    "edges": [
      {
        "station": "三河安城",
        "line": "JR東海道本線",
        "station_cd": "1150222",
        "line_cd": "11502"
      },
      {
        "station": "野田新町",
        "line": "JR東海道本線",
        "station_cd": "1150240",
        "line_cd": "11502"
      }
    ]
  },
  "野田新町": {
    "lat": 34.984212,
    "lon": 137.026355,
    "edges": [
      {
        "station": "東刈谷",
        "line": "JR東海道本線",
        "station_cd": "1150223",
        "line_cd": "11502"
      },
      {
        "station": "刈谷",
        "line": "JR東海道本線",
        "station_cd": "1150224",
        "line_cd": "11502"
      }
    ]
  },
  "刈谷": {
    "lat": 34.991156,
    "lon": 137.008878,
    "edges": [
      {
        "station": "逢妻",
        "line": "JR東海道本線",
        "station_cd": "1150225",
        "line_cd": "11502"
      },
      {
        "station": "野田新町",
        "line": "JR東海道本線",
        "station_cd": "1150240",
        "line_cd": "11502"
      },
      {
        "station": "刈谷市",
        "line": "名鉄三河線",
        "station_cd": "3000509",
        "line_cd": "30005"
      },
      {
        "station": "重原",
        "line": "名鉄三河線",
        "station_cd": "3000511",
        "line_cd": "30005"
      }
    ]
  },
  "逢妻": {
    "lat": 34.998215,
    "lon": 136.990544,
    "edges": [
      {
        "station": "刈谷",
        "line": "JR東海道本線",
        "station_cd": "1150224",
        "line_cd": "11502"
      },
      {
        "station": "大府",
        "line": "JR東海道本線",
        "station_cd": "1150226",
        "line_cd": "11502"
      }
    ]
  },
  "大府": {
    "lat": 35.008665,
    "lon": 136.961727,
    "edges": [
      {
        "station": "逢妻",
        "line": "JR東海道本線",
        "station_cd": "1150225",
        "line_cd": "11502"
      },
      {
        "station": "共和",
        "line": "JR東海道本線",
        "station_cd": "1150227",
        "line_cd": "11502"
      }
    ]
  },
  "共和": {
    "lat": 35.035245,
    "lon": 136.954599,
    "edges": [
      {
        "station": "大府",
        "line": "JR東海道本線",
        "station_cd": "1150226",
        "line_cd": "11502"
      },
      {
        "station": "南大高",
        "line": "JR東海道本線",
        "station_cd": "1150241",
        "line_cd": "11502"
      }
    ]
  },
  "南大高": {
    "lat": 35.055403,
    "lon": 136.948244,
    "edges": [
      {
        "station": "共和",
        "line": "JR東海道本線",
        "station_cd": "1150227",
        "line_cd": "11502"
      },
      {
        "station": "大高",
        "line": "JR東海道本線",
        "station_cd": "1150228",
        "line_cd": "11502"
      }
    ]
  },
  "大高": {
    "lat": 35.069244,
    "lon": 136.940242,
    "edges": [
      {
        "station": "笠寺",
        "line": "JR東海道本線",
        "station_cd": "1150229",
        "line_cd": "11502"
      },
      {
        "station": "南大高",
        "line": "JR東海道本線",
        "station_cd": "1150241",
        "line_cd": "11502"
      }
    ]
  },
  "笠寺": {
    "lat": 35.095113,
    "lon": 136.926321,
    "edges": [
      {
        "station": "大高",
        "line": "JR東海道本線",
        "station_cd": "1150228",
        "line_cd": "11502"
      },
      {
        "station": "熱田",
        "line": "JR東海道本線",
        "station_cd": "1150230",
        "line_cd": "11502"
      }
    ]
  },
  "熱田": {
    "lat": 35.130028,
    "lon": 136.910502,
    "edges": [
      {
        "station": "笠寺",
        "line": "JR東海道本線",
        "station_cd": "1150229",
        "line_cd": "11502"
      },
      {
        "station": "金山",
        "line": "JR東海道本線",
        "station_cd": "1150231",
        "line_cd": "11502"
      }
    ]
  },
  "尾頭橋": {
    "lat": 35.146981,
    "lon": 136.89102,
    "edges": [
      {
        "station": "金山",
        "line": "JR東海道本線",
        "station_cd": "1150231",
        "line_cd": "11502"
      },
      {
        "station": "名古屋",
        "line": "JR東海道本線",
        "station_cd": "1150233",
        "line_cd": "11502"
      }
    ]
  },
  "枇杷島": {
    "lat": 35.198681,
    "lon": 136.861816,
    "edges": [
      {
        "station": "名古屋",
        "line": "JR東海道本線",
        "station_cd": "1150233",
        "line_cd": "11502"
      },
      {
        "station": "清洲",
        "line": "JR東海道本線",
        "station_cd": "1150235",
        "line_cd": "11502"
      }
    ]
  },
  "清洲": {
    "lat": 35.225406,
    "lon": 136.834529,
    "edges": [
      {
        "station": "枇杷島",
        "line": "JR東海道本線",
        "station_cd": "1150234",
        "line_cd": "11502"
      },
      {
        "station": "稲沢",
        "line": "JR東海道本線",
        "station_cd": "1150236",
        "line_cd": "11502"
      }
    ]
  },
  "稲沢": {
    "lat": 35.252994,
    "lon": 136.820942,
    "edges": [
      {
        "station": "清洲",
        "line": "JR東海道本線",
        "station_cd": "1150235",
        "line_cd": "11502"
      },
      {
        "station": "尾張一宮",
        "line": "JR東海道本線",
        "station_cd": "1150237",
        "line_cd": "11502"
      }
    ]
  },
  "尾張一宮": {
    "lat": 35.301765,
    "lon": 136.797567,
    "edges": [
      {
        "station": "稲沢",
        "line": "JR東海道本線",
        "station_cd": "1150236",
        "line_cd": "11502"
      },
      {
        "station": "木曽川",
        "line": "JR東海道本線",
        "station_cd": "1150238",
        "line_cd": "11502"
      }
    ]
  },
  "木曽川": {
    "lat": 35.349319,
    "lon": 136.780726,
    "edges": [
      {
        "station": "尾張一宮",
        "line": "JR東海道本線",
        "station_cd": "1150237",
        "line_cd": "11502"
      }
    ]
  },
  "伊奈": {
    "lat": 34.802857,
    "lon": 137.354743,
    "edges": [
      {
        "station": "豊橋",
        "line": "名鉄名古屋本線",
        "station_cd": "3000101",
        "line_cd": "30001"
      },
      {
        "station": "小田渕",
        "line": "名鉄名古屋本線",
        "station_cd": "3000103",
        "line_cd": "30001"
      }
    ]
  },
  "小田渕": {
    "lat": 34.814739,
    "lon": 137.34559,
    "edges": [
      {
        "station": "伊奈",
        "line": "名鉄名古屋本線",
        "station_cd": "3000102",
        "line_cd": "30001"
      },
      {
        "station": "国府",
        "line": "名鉄名古屋本線",
        "station_cd": "3000104",
        "line_cd": "30001"
      }
    ]
  },
  "国府": {
    "lat": 34.83752,
    "lon": 137.328101,
    "edges": [
      {
        "station": "小田渕",
        "line": "名鉄名古屋本線",
        "station_cd": "3000103",
        "line_cd": "30001"
      },
      {
        "station": "御油",
        "line": "名鉄名古屋本線",
        "station_cd": "3000105",
        "line_cd": "30001"
      },
      {
        "station": "八幡",
        "line": "名鉄豊川線",
        "station_cd": "3000202",
        "line_cd": "30002"
      }
    ]
  },
  "御油": {
    "lat": 34.846113,
    "lon": 137.321443,
    "edges": [
      {
        "station": "国府",
        "line": "名鉄名古屋本線",
        "station_cd": "3000104",
        "line_cd": "30001"
      },
      {
        "station": "名電赤坂",
        "line": "名鉄名古屋本線",
        "station_cd": "3000106",
        "line_cd": "30001"
      }
    ]
  },
  "名電赤坂": {
    "lat": 34.859331,
    "lon": 137.311152,
    "edges": [
      {
        "station": "御油",
        "line": "名鉄名古屋本線",
        "station_cd": "3000105",
        "line_cd": "30001"
      },
      {
        "station": "名電長沢",
        "line": "名鉄名古屋本線",
        "station_cd": "3000107",
        "line_cd": "30001"
      }
    ]
  },
  "名電長沢": {
    "lat": 34.871623,
    "lon": 137.288298,
    "edges": [
      {
        "station": "名電赤坂",
        "line": "名鉄名古屋本線",
        "station_cd": "3000106",
        "line_cd": "30001"
      },
      {
        "station": "本宿",
        "line": "名鉄名古屋本線",
        "station_cd": "3000108",
        "line_cd": "30001"
      }
    ]
  },
  "本宿": {
    "lat": 34.893025,
    "lon": 137.260014,
    "edges": [
      {
        "station": "名電長沢",
        "line": "名鉄名古屋本線",
        "station_cd": "3000107",
        "line_cd": "30001"
      },
      {
        "station": "名電山中",
        "line": "名鉄名古屋本線",
        "station_cd": "3000109",
        "line_cd": "30001"
      }
    ]
  },
  "名電山中": {
    "lat": 34.899474,
    "lon": 137.242829,
    "edges": [
      {
        "station": "本宿",
        "line": "名鉄名古屋本線",
        "station_cd": "3000108",
        "line_cd": "30001"
      },
      {
        "station": "藤川",
        "line": "名鉄名古屋本線",
        "station_cd": "3000110",
        "line_cd": "30001"
      }
    ]
  },
  "藤川": {
    "lat": 34.913304,
    "lon": 137.218428,
    "edges": [
      {
        "station": "名電山中",
        "line": "名鉄名古屋本線",
        "station_cd": "3000109",
        "line_cd": "30001"
      },
      {
        "station": "美合",
        "line": "名鉄名古屋本線",
        "station_cd": "3000111",
        "line_cd": "30001"
      }
    ]
  },
  "美合": {
    "lat": 34.923763,
    "lon": 137.196317,
    "edges": [
      {
        "station": "藤川",
        "line": "名鉄名古屋本線",
        "station_cd": "3000110",
        "line_cd": "30001"
      },
      {
        "station": "男川",
        "line": "名鉄名古屋本線",
        "station_cd": "3000112",
        "line_cd": "30001"
      }
    ]
  },
  "男川": {
    "lat": 34.937461,
    "lon": 137.183296,
    "edges": [
      {
        "station": "美合",
        "line": "名鉄名古屋本線",
        "station_cd": "3000111",
        "line_cd": "30001"
      },
      {
        "station": "東岡崎",
        "line": "名鉄名古屋本線",
        "station_cd": "3000113",
        "line_cd": "30001"
      }
    ]
  },
  "東岡崎": {
    "lat": 34.951904,
    "lon": 137.167333,
    "edges": [
      {
        "station": "男川",
        "line": "名鉄名古屋本線",
        "station_cd": "3000112",
        "line_cd": "30001"
      },
      {
        "station": "岡崎公園前",
        "line": "名鉄名古屋本線",
        "station_cd": "3000114",
        "line_cd": "30001"
      }
    ]
  },
  "岡崎公園前": {
    "lat": 34.954984,
    "lon": 137.153309,
    "edges": [
      {
        "station": "東岡崎",
        "line": "名鉄名古屋本線",
        "station_cd": "3000113",
        "line_cd": "30001"
      },
      {
        "station": "矢作橋",
        "line": "名鉄名古屋本線",
        "station_cd": "3000115",
        "line_cd": "30001"
      }
    ]
  },
  "矢作橋": {
    "lat": 34.961149,
    "lon": 137.139957,
    "edges": [
      {
        "station": "岡崎公園前",
        "line": "名鉄名古屋本線",
        "station_cd": "3000114",
        "line_cd": "30001"
      },
      {
        "station": "宇頭",
        "line": "名鉄名古屋本線",
        "station_cd": "3000116",
        "line_cd": "30001"
      }
    ]
  },
  "宇頭": {
    "lat": 34.971367,
    "lon": 137.118103,
    "edges": [
      {
        "station": "矢作橋",
        "line": "名鉄名古屋本線",
        "station_cd": "3000115",
        "line_cd": "30001"
      },
      {
        "station": "新安城",
        "line": "名鉄名古屋本線",
        "station_cd": "3000117",
        "line_cd": "30001"
      }
    ]
  },
  "新安城": {
    "lat": 34.986885,
    "lon": 137.085443,
    "edges": [
      {
        "station": "宇頭",
        "line": "名鉄名古屋本線",
        "station_cd": "3000116",
        "line_cd": "30001"
      },
      {
        "station": "牛田",
        "line": "名鉄名古屋本線",
        "station_cd": "3000118",
        "line_cd": "30001"
      },
      {
        "station": "北安城",
        "line": "名鉄西尾線",
        "station_cd": "3000302",
        "line_cd": "30003"
      }
    ]
  },
  "牛田": {
    "lat": 34.999294,
    "lon": 137.060946,
    "edges": [
      {
        "station": "新安城",
        "line": "名鉄名古屋本線",
        "station_cd": "3000117",
        "line_cd": "30001"
      },
      {
        "station": "知立",
        "line": "名鉄名古屋本線",
        "station_cd": "3000119",
        "line_cd": "30001"
      }
    ]
  },
  "知立": {
    "lat": 35.006111,
    "lon": 137.039722,
    "edges": [
      {
        "station": "牛田",
        "line": "名鉄名古屋本線",
        "station_cd": "3000118",
        "line_cd": "30001"
      },
      {
        "station": "一ツ木",
        "line": "名鉄名古屋本線",
        "station_cd": "3000120",
        "line_cd": "30001"
      },
      {
        "station": "重原",
        "line": "名鉄三河線",
        "station_cd": "3000511",
        "line_cd": "30005"
      },
      {
        "station": "三河知立",
        "line": "名鉄三河線",
        "station_cd": "3000513",
        "line_cd": "30005"
      }
    ]
  },
  "一ツ木": {
    "lat": 35.01367,
    "lon": 137.02551,
    "edges": [
      {
        "station": "知立",
        "line": "名鉄名古屋本線",
        "station_cd": "3000119",
        "line_cd": "30001"
      },
      {
        "station": "富士松",
        "line": "名鉄名古屋本線",
        "station_cd": "3000121",
        "line_cd": "30001"
      }
    ]
  },
  "富士松": {
    "lat": 35.029759,
    "lon": 137.016508,
    "edges": [
      {
        "station": "一ツ木",
        "line": "名鉄名古屋本線",
        "station_cd": "3000120",
        "line_cd": "30001"
      },
      {
        "station": "豊明",
        "line": "名鉄名古屋本線",
        "station_cd": "3000122",
        "line_cd": "30001"
      }
    ]
  },
  "豊明": {
    "lat": 35.041127,
    "lon": 137.008161,
    "edges": [
      {
        "station": "富士松",
        "line": "名鉄名古屋本線",
        "station_cd": "3000121",
        "line_cd": "30001"
      },
      {
        "station": "前後",
        "line": "名鉄名古屋本線",
        "station_cd": "3000123",
        "line_cd": "30001"
      }
    ]
  },
  "前後": {
    "lat": 35.05227,
    "lon": 136.995665,
    "edges": [
      {
        "station": "豊明",
        "line": "名鉄名古屋本線",
        "station_cd": "3000122",
        "line_cd": "30001"
      },
      {
        "station": "中京競馬場前",
        "line": "名鉄名古屋本線",
        "station_cd": "3000124",
        "line_cd": "30001"
      }
    ]
  },
  "中京競馬場前": {
    "lat": 35.061302,
    "lon": 136.98158,
    "edges": [
      {
        "station": "前後",
        "line": "名鉄名古屋本線",
        "station_cd": "3000123",
        "line_cd": "30001"
      },
      {
        "station": "有松",
        "line": "名鉄名古屋本線",
        "station_cd": "3000125",
        "line_cd": "30001"
      }
    ]
  },
  "有松": {
    "lat": 35.067687,
    "lon": 136.971084,
    "edges": [
      {
        "station": "中京競馬場前",
        "line": "名鉄名古屋本線",
        "station_cd": "3000124",
        "line_cd": "30001"
      },
      {
        "station": "左京山",
        "line": "名鉄名古屋本線",
        "station_cd": "3000126",
        "line_cd": "30001"
      }
    ]
  },
  "左京山": {
    "lat": 35.070553,
    "lon": 136.960301,
    "edges": [
      {
        "station": "有松",
        "line": "名鉄名古屋本線",
        "station_cd": "3000125",
        "line_cd": "30001"
      },
      {
        "station": "鳴海",
        "line": "名鉄名古屋本線",
        "station_cd": "3000127",
        "line_cd": "30001"
      }
    ]
  },
  "鳴海": {
    "lat": 35.079149,
    "lon": 136.950096,
    "edges": [
      {
        "station": "左京山",
        "line": "名鉄名古屋本線",
        "station_cd": "3000126",
        "line_cd": "30001"
      },
      {
        "station": "本星崎",
        "line": "名鉄名古屋本線",
        "station_cd": "3000128",
        "line_cd": "30001"
      }
    ]
  },
  "本星崎": {
    "lat": 35.087392,
    "lon": 136.937378,
    "edges": [
      {
        "station": "鳴海",
        "line": "名鉄名古屋本線",
        "station_cd": "3000127",
        "line_cd": "30001"
      },
      {
        "station": "本笠寺",
        "line": "名鉄名古屋本線",
        "station_cd": "3000129",
        "line_cd": "30001"
      }
    ]
  },
  "本笠寺": {
    "lat": 35.099199,
    "lon": 136.933409,
    "edges": [
      {
        "station": "本星崎",
        "line": "名鉄名古屋本線",
        "station_cd": "3000128",
        "line_cd": "30001"
      },
      {
        "station": "桜",
        "line": "名鉄名古屋本線",
        "station_cd": "3000130",
        "line_cd": "30001"
      }
    ]
  },
  "桜": {
    "lat": 35.106062,
    "lon": 136.934586,
    "edges": [
      {
        "station": "本笠寺",
        "line": "名鉄名古屋本線",
        "station_cd": "3000129",
        "line_cd": "30001"
      },
      {
        "station": "呼続",
        "line": "名鉄名古屋本線",
        "station_cd": "3000131",
        "line_cd": "30001"
      }
    ]
  },
  "呼続": {
    "lat": 35.114722,
    "lon": 136.930387,
    "edges": [
      {
        "station": "桜",
        "line": "名鉄名古屋本線",
        "station_cd": "3000130",
        "line_cd": "30001"
      },
      {
        "station": "堀田",
        "line": "名鉄名古屋本線",
        "station_cd": "3000132",
        "line_cd": "30001"
      }
    ]
  },
  "堀田": {
    "lat": 35.120251,
    "lon": 136.919839,
    "edges": [
      {
        "station": "呼続",
        "line": "名鉄名古屋本線",
        "station_cd": "3000131",
        "line_cd": "30001"
      },
      {
        "station": "神宮前",
        "line": "名鉄名古屋本線",
        "station_cd": "3000133",
        "line_cd": "30001"
      },
      {
        "station": "熱田神宮伝馬町",
        "line": "地下鉄名城線",
        "station_cd": "9951416",
        "line_cd": "99514"
      },
      {
        "station": "妙音通",
        "line": "地下鉄名城線",
        "station_cd": "9951418",
        "line_cd": "99514"
      }
    ]
  },
  "神宮前": {
    "lat": 35.125857,
    "lon": 136.912485,
    "edges": [
      {
        "station": "堀田",
        "line": "名鉄名古屋本線",
        "station_cd": "3000132",
        "line_cd": "30001"
      },
      {
        "station": "金山",
        "line": "名鉄名古屋本線",
        "station_cd": "3000134",
        "line_cd": "30001"
      },
      {
        "station": "金山",
        "line": "名鉄常滑線",
        "station_cd": "3000803",
        "line_cd": "30008"
      },
      {
        "station": "豊田本町",
        "line": "名鉄常滑線",
        "station_cd": "3000805",
        "line_cd": "30008"
      }
    ]
  },
  "山王": {
    "lat": 35.15233,
    "lon": 136.888461,
    "edges": [
      {
        "station": "金山",
        "line": "名鉄名古屋本線",
        "station_cd": "3000134",
        "line_cd": "30001"
      },
      {
        "station": "名鉄名古屋",
        "line": "名鉄名古屋本線",
        "station_cd": "3000136",
        "line_cd": "30001"
      },
      {
        "station": "名鉄名古屋",
        "line": "名鉄常滑線",
        "station_cd": "3000801",
        "line_cd": "30008"
      },
      {
        "station": "金山",
        "line": "名鉄常滑線",
        "station_cd": "3000803",
        "line_cd": "30008"
      }
    ]
  },
  "名鉄名古屋": {
    "lat": 35.169252,
    "lon": 136.884187,
    "edges": [
      {
        "station": "山王",
        "line": "名鉄名古屋本線",
        "station_cd": "3000135",
        "line_cd": "30001"
      },
      {
        "station": "栄生",
        "line": "名鉄名古屋本線",
        "station_cd": "3000137",
        "line_cd": "30001"
      },
      {
        "station": "山王",
        "line": "名鉄常滑線",
        "station_cd": "3000802",
        "line_cd": "30008"
      },
      {
        "station": "栄生",
        "line": "名鉄犬山線",
        "station_cd": "3001502",
        "line_cd": "30015"
      }
    ]
  },
  "栄生": {
    "lat": 35.183687,
    "lon": 136.873051,
    "edges": [
      {
        "station": "名鉄名古屋",
        "line": "名鉄名古屋本線",
        "station_cd": "3000136",
        "line_cd": "30001"
      },
      {
        "station": "東枇杷島",
        "line": "名鉄名古屋本線",
        "station_cd": "3000138",
        "line_cd": "30001"
      },
      {
        "station": "名鉄名古屋",
        "line": "名鉄犬山線",
        "station_cd": "3001501",
        "line_cd": "30015"
      },
      {
        "station": "東枇杷島",
        "line": "名鉄犬山線",
        "station_cd": "3001503",
        "line_cd": "30015"
      }
    ]
  },
  "東枇杷島": {
    "lat": 35.189808,
    "lon": 136.870168,
    "edges": [
      {
        "station": "栄生",
        "line": "名鉄名古屋本線",
        "station_cd": "3000137",
        "line_cd": "30001"
      },
      {
        "station": "西枇杷島",
        "line": "名鉄名古屋本線",
        "station_cd": "3000139",
        "line_cd": "30001"
      },
      {
        "station": "栄生",
        "line": "名鉄犬山線",
        "station_cd": "3001502",
        "line_cd": "30015"
      },
      {
        "station": "下小田井",
        "line": "名鉄犬山線",
        "station_cd": "3001504",
        "line_cd": "30015"
      }
    ]
  },
  "西枇杷島": {
    "lat": 35.195015,
    "lon": 136.865685,
    "edges": [
      {
        "station": "東枇杷島",
        "line": "名鉄名古屋本線",
        "station_cd": "3000138",
        "line_cd": "30001"
      },
      {
        "station": "二ツ杁",
        "line": "名鉄名古屋本線",
        "station_cd": "3000140",
        "line_cd": "30001"
      }
    ]
  },
  "二ツ杁": {
    "lat": 35.194646,
    "lon": 136.859583,
    "edges": [
      {
        "station": "西枇杷島",
        "line": "名鉄名古屋本線",
        "station_cd": "3000139",
        "line_cd": "30001"
      },
      {
        "station": "新川橋",
        "line": "名鉄名古屋本線",
        "station_cd": "3000141",
        "line_cd": "30001"
      }
    ]
  },
  "新川橋": {
    "lat": 35.195701,
    "lon": 136.851989,
    "edges": [
      {
        "station": "二ツ杁",
        "line": "名鉄名古屋本線",
        "station_cd": "3000140",
        "line_cd": "30001"
      },
      {
        "station": "須ヶ口",
        "line": "名鉄名古屋本線",
        "station_cd": "3000142",
        "line_cd": "30001"
      }
    ]
  },
  "須ヶ口": {
    "lat": 35.198684,
    "lon": 136.846229,
    "edges": [
      {
        "station": "新川橋",
        "line": "名鉄名古屋本線",
        "station_cd": "3000141",
        "line_cd": "30001"
      },
      {
        "station": "丸ノ内",
        "line": "名鉄名古屋本線",
        "station_cd": "3000143",
        "line_cd": "30001"
      },
      {
        "station": "甚目寺",
        "line": "名鉄津島線",
        "station_cd": "3001302",
        "line_cd": "30013"
      }
    ]
  },
  "丸ノ内": {
    "lat": 35.204742,
    "lon": 136.841927,
    "edges": [
      {
        "station": "須ヶ口",
        "line": "名鉄名古屋本線",
        "station_cd": "3000142",
        "line_cd": "30001"
      },
      {
        "station": "新清洲",
        "line": "名鉄名古屋本線",
        "station_cd": "3000144",
        "line_cd": "30001"
      }
    ]
  },
  "新清洲": {
    "lat": 35.211249,
    "lon": 136.835607,
    "edges": [
      {
        "station": "丸ノ内",
        "line": "名鉄名古屋本線",
        "station_cd": "3000143",
        "line_cd": "30001"
      },
      {
        "station": "大里",
        "line": "名鉄名古屋本線",
        "station_cd": "3000145",
        "line_cd": "30001"
      }
    ]
  },
  "大里": {
    "lat": 35.226216,
    "lon": 136.818428,
    "edges": [
      {
        "station": "新清洲",
        "line": "名鉄名古屋本線",
        "station_cd": "3000144",
        "line_cd": "30001"
      },
      {
        "station": "奥田",
        "line": "名鉄名古屋本線",
        "station_cd": "3000146",
        "line_cd": "30001"
      }
    ]
  },
  "奥田": {
    "lat": 35.235412,
    "lon": 136.810917,
    "edges": [
      {
        "station": "大里",
        "line": "名鉄名古屋本線",
        "station_cd": "3000145",
        "line_cd": "30001"
      },
      {
        "station": "国府宮",
        "line": "名鉄名古屋本線",
        "station_cd": "3000147",
        "line_cd": "30001"
      }
    ]
  },
  "国府宮": {
    "lat": 35.254218,
    "lon": 136.802963,
    "edges": [
      {
        "station": "奥田",
        "line": "名鉄名古屋本線",
        "station_cd": "3000146",
        "line_cd": "30001"
      },
      {
        "station": "島氏永",
        "line": "名鉄名古屋本線",
        "station_cd": "3000148",
        "line_cd": "30001"
      }
    ]
  },
  "島氏永": {
    "lat": 35.270777,
    "lon": 136.800987,
    "edges": [
      {
        "station": "国府宮",
        "line": "名鉄名古屋本線",
        "station_cd": "3000147",
        "line_cd": "30001"
      },
      {
        "station": "妙興寺",
        "line": "名鉄名古屋本線",
        "station_cd": "3000149",
        "line_cd": "30001"
      }
    ]
  },
  "妙興寺": {
    "lat": 35.287178,
    "lon": 136.798231,
    "edges": [
      {
        "station": "島氏永",
        "line": "名鉄名古屋本線",
        "station_cd": "3000148",
        "line_cd": "30001"
      },
      {
        "station": "名鉄一宮",
        "line": "名鉄名古屋本線",
        "station_cd": "3000150",
        "line_cd": "30001"
      }
    ]
  },
  "名鉄一宮": {
    "lat": 35.30154,
    "lon": 136.797225,
    "edges": [
      {
        "station": "妙興寺",
        "line": "名鉄名古屋本線",
        "station_cd": "3000149",
        "line_cd": "30001"
      },
      {
        "station": "今伊勢",
        "line": "名鉄名古屋本線",
        "station_cd": "3000151",
        "line_cd": "30001"
      },
      {
        "station": "観音寺",
        "line": "名鉄尾西線",
        "station_cd": "3001418",
        "line_cd": "30014"
      },
      {
        "station": "西一宮",
        "line": "名鉄尾西線",
        "station_cd": "3001420",
        "line_cd": "30014"
      }
    ]
  },
  "今伊勢": {
    "lat": 35.31836,
    "lon": 136.789273,
    "edges": [
      {
        "station": "名鉄一宮",
        "line": "名鉄名古屋本線",
        "station_cd": "3000150",
        "line_cd": "30001"
      },
      {
        "station": "石刀",
        "line": "名鉄名古屋本線",
        "station_cd": "3000152",
        "line_cd": "30001"
      }
    ]
  },
  "石刀": {
    "lat": 35.326204,
    "lon": 136.785407,
    "edges": [
      {
        "station": "今伊勢",
        "line": "名鉄名古屋本線",
        "station_cd": "3000151",
        "line_cd": "30001"
      },
      {
        "station": "新木曽川",
        "line": "名鉄名古屋本線",
        "station_cd": "3000153",
        "line_cd": "30001"
      }
    ]
  },
  "新木曽川": {
    "lat": 35.342047,
    "lon": 136.779421,
    "edges": [
      {
        "station": "石刀",
        "line": "名鉄名古屋本線",
        "station_cd": "3000152",
        "line_cd": "30001"
      },
      {
        "station": "黒田",
        "line": "名鉄名古屋本線",
        "station_cd": "3000154",
        "line_cd": "30001"
      }
    ]
  },
  "黒田": {
    "lat": 35.350213,
    "lon": 136.777502,
    "edges": [
      {
        "station": "新木曽川",
        "line": "名鉄名古屋本線",
        "station_cd": "3000153",
        "line_cd": "30001"
      },
      {
        "station": "木曽川堤",
        "line": "名鉄名古屋本線",
        "station_cd": "3000155",
        "line_cd": "30001"
      }
    ]
  },
  "木曽川堤": {
    "lat": 35.365067,
    "lon": 136.770486,
    "edges": [
      {
        "station": "黒田",
        "line": "名鉄名古屋本線",
        "station_cd": "3000154",
        "line_cd": "30001"
      }
    ]
  },
  "八幡": {
    "lat": 34.82916,
    "lon": 137.352113,
    "edges": [
      {
        "station": "国府",
        "line": "名鉄豊川線",
        "station_cd": "3000201",
        "line_cd": "30002"
      },
      {
        "station": "諏訪町",
        "line": "名鉄豊川線",
        "station_cd": "3000203",
        "line_cd": "30002"
      }
    ]
  },
  "諏訪町": {
    "lat": 34.823464,
    "lon": 137.370479,
    "edges": [
      {
        "station": "八幡",
        "line": "名鉄豊川線",
        "station_cd": "3000202",
        "line_cd": "30002"
      },
      {
        "station": "稲荷口",
        "line": "名鉄豊川線",
        "station_cd": "3000204",
        "line_cd": "30002"
      }
    ]
  },
  "稲荷口": {
    "lat": 34.818435,
    "lon": 137.387703,
    "edges": [
      {
        "station": "諏訪町",
        "line": "名鉄豊川線",
        "station_cd": "3000203",
        "line_cd": "30002"
      },
      {
        "station": "豊川稲荷",
        "line": "名鉄豊川線",
        "station_cd": "3000205",
        "line_cd": "30002"
      }
    ]
  },
  "豊川稲荷": {
    "lat": 34.821755,
    "lon": 137.396058,
    "edges": [
      {
        "station": "稲荷口",
        "line": "名鉄豊川線",
        "station_cd": "3000204",
        "line_cd": "30002"
      }
    ]
  },
  "北安城": {
    "lat": 34.964677,
    "lon": 137.092146,
    "edges": [
      {
        "station": "新安城",
        "line": "名鉄西尾線",
        "station_cd": "3000301",
        "line_cd": "30003"
      },
      {
        "station": "南安城",
        "line": "名鉄西尾線",
        "station_cd": "3000303",
        "line_cd": "30003"
      }
    ]
  },
  "南安城": {
    "lat": 34.951976,
    "lon": 137.092457,
    "edges": [
      {
        "station": "北安城",
        "line": "名鉄西尾線",
        "station_cd": "3000302",
        "line_cd": "30003"
      },
      {
        "station": "碧海古井",
        "line": "名鉄西尾線",
        "station_cd": "3000304",
        "line_cd": "30003"
      }
    ]
  },
  "碧海古井": {
    "lat": 34.93723,
    "lon": 137.090863,
    "edges": [
      {
        "station": "南安城",
        "line": "名鉄西尾線",
        "station_cd": "3000303",
        "line_cd": "30003"
      },
      {
        "station": "堀内公園",
        "line": "名鉄西尾線",
        "station_cd": "3000305",
        "line_cd": "30003"
      }
    ]
  },
  "堀内公園": {
    "lat": 34.927834,
    "lon": 137.089636,
    "edges": [
      {
        "station": "碧海古井",
        "line": "名鉄西尾線",
        "station_cd": "3000304",
        "line_cd": "30003"
      },
      {
        "station": "桜井",
        "line": "名鉄西尾線",
        "station_cd": "3000306",
        "line_cd": "30003"
      }
    ]
  },
  "桜井": {
    "lat": 34.917477,
    "lon": 137.088345,
    "edges": [
      {
        "station": "堀内公園",
        "line": "名鉄西尾線",
        "station_cd": "3000305",
        "line_cd": "30003"
      },
      {
        "station": "南桜井",
        "line": "名鉄西尾線",
        "station_cd": "3000316",
        "line_cd": "30003"
      }
    ]
  },
  "南桜井": {
    "lat": 34.906302,
    "lon": 137.07721,
    "edges": [
      {
        "station": "桜井",
        "line": "名鉄西尾線",
        "station_cd": "3000306",
        "line_cd": "30003"
      },
      {
        "station": "米津",
        "line": "名鉄西尾線",
        "station_cd": "3000307",
        "line_cd": "30003"
      }
    ]
  },
  "米津": {
    "lat": 34.892822,
    "lon": 137.060993,
    "edges": [
      {
        "station": "桜町前",
        "line": "名鉄西尾線",
        "station_cd": "3000308",
        "line_cd": "30003"
      },
      {
        "station": "南桜井",
        "line": "名鉄西尾線",
        "station_cd": "3000316",
        "line_cd": "30003"
      }
    ]
  },
  "桜町前": {
    "lat": 34.880107,
    "lon": 137.062444,
    "edges": [
      {
        "station": "米津",
        "line": "名鉄西尾線",
        "station_cd": "3000307",
        "line_cd": "30003"
      },
      {
        "station": "西尾口",
        "line": "名鉄西尾線",
        "station_cd": "3000309",
        "line_cd": "30003"
      }
    ]
  },
  "西尾口": {
    "lat": 34.870647,
    "lon": 137.062661,
    "edges": [
      {
        "station": "桜町前",
        "line": "名鉄西尾線",
        "station_cd": "3000308",
        "line_cd": "30003"
      },
      {
        "station": "西尾",
        "line": "名鉄西尾線",
        "station_cd": "3000310",
        "line_cd": "30003"
      }
    ]
  },
  "西尾": {
    "lat": 34.863917,
    "lon": 137.057789,
    "edges": [
      {
        "station": "西尾口",
        "line": "名鉄西尾線",
        "station_cd": "3000309",
        "line_cd": "30003"
      },
      {
        "station": "福地",
        "line": "名鉄西尾線",
        "station_cd": "3000311",
        "line_cd": "30003"
      }
    ]
  },
  "福地": {
    "lat": 34.844663,
    "lon": 137.048579,
    "edges": [
      {
        "station": "西尾",
        "line": "名鉄西尾線",
        "station_cd": "3000310",
        "line_cd": "30003"
      },
      {
        "station": "上横須賀",
        "line": "名鉄西尾線",
        "station_cd": "3000313",
        "line_cd": "30003"
      }
    ]
  },
  "上横須賀": {
    "lat": 34.829941,
    "lon": 137.071883,
    "edges": [
      {
        "station": "福地",
        "line": "名鉄西尾線",
        "station_cd": "3000311",
        "line_cd": "30003"
      },
      {
        "station": "吉良吉田",
        "line": "名鉄西尾線",
        "station_cd": "3000315",
        "line_cd": "30003"
      }
    ]
  },
  "吉良吉田": {
    "lat": 34.794043,
    "lon": 137.071017,
    "edges": [
      {
        "station": "上横須賀",
        "line": "名鉄西尾線",
        "station_cd": "3000313",
        "line_cd": "30003"
      },
      {
        "station": "三河鳥羽",
        "line": "名鉄蒲郡線",
        "station_cd": "3000402",
        "line_cd": "30004"
      }
    ]
  },
  "三河鳥羽": {
    "lat": 34.793214,
    "lon": 137.104984,
    "edges": [
      {
        "station": "吉良吉田",
        "line": "名鉄蒲郡線",
        "station_cd": "3000401",
        "line_cd": "30004"
      },
      {
        "station": "西幡豆",
        "line": "名鉄蒲郡線",
        "station_cd": "3000403",
        "line_cd": "30004"
      }
    ]
  },
  "西幡豆": {
    "lat": 34.792431,
    "lon": 137.121271,
    "edges": [
      {
        "station": "三河鳥羽",
        "line": "名鉄蒲郡線",
        "station_cd": "3000402",
        "line_cd": "30004"
      },
      {
        "station": "東幡豆",
        "line": "名鉄蒲郡線",
        "station_cd": "3000404",
        "line_cd": "30004"
      }
    ]
  },
  "東幡豆": {
    "lat": 34.789693,
    "lon": 137.145645,
    "edges": [
      {
        "station": "西幡豆",
        "line": "名鉄蒲郡線",
        "station_cd": "3000403",
        "line_cd": "30004"
      },
      {
        "station": "こどもの国",
        "line": "名鉄蒲郡線",
        "station_cd": "3000405",
        "line_cd": "30004"
      }
    ]
  },
  "こどもの国": {
    "lat": 34.788791,
    "lon": 137.162721,
    "edges": [
      {
        "station": "東幡豆",
        "line": "名鉄蒲郡線",
        "station_cd": "3000404",
        "line_cd": "30004"
      },
      {
        "station": "西浦",
        "line": "名鉄蒲郡線",
        "station_cd": "3000406",
        "line_cd": "30004"
      }
    ]
  },
  "西浦": {
    "lat": 34.79003,
    "lon": 137.178617,
    "edges": [
      {
        "station": "こどもの国",
        "line": "名鉄蒲郡線",
        "station_cd": "3000405",
        "line_cd": "30004"
      },
      {
        "station": "形原",
        "line": "名鉄蒲郡線",
        "station_cd": "3000407",
        "line_cd": "30004"
      }
    ]
  },
  "形原": {
    "lat": 34.798607,
    "lon": 137.184594,
    "edges": [
      {
        "station": "西浦",
        "line": "名鉄蒲郡線",
        "station_cd": "3000406",
        "line_cd": "30004"
      },
      {
        "station": "三河鹿島",
        "line": "名鉄蒲郡線",
        "station_cd": "3000408",
        "line_cd": "30004"
      }
    ]
  },
  "三河鹿島": {
    "lat": 34.813313,
    "lon": 137.189687,
    "edges": [
      {
        "station": "形原",
        "line": "名鉄蒲郡線",
        "station_cd": "3000407",
        "line_cd": "30004"
      },
      {
        "station": "蒲郡競艇場前",
        "line": "名鉄蒲郡線",
        "station_cd": "3000409",
        "line_cd": "30004"
      }
    ]
  },
  "蒲郡競艇場前": {
    "lat": 34.825545,
    "lon": 137.202014,
    "edges": [
      {
        "station": "三河鹿島",
        "line": "名鉄蒲郡線",
        "station_cd": "3000408",
        "line_cd": "30004"
      },
      {
        "station": "蒲郡",
        "line": "名鉄蒲郡線",
        "station_cd": "3000410",
        "line_cd": "30004"
      }
    ]
  },
  "碧南": {
    "lat": 34.874041,
    "lon": 136.985613,
    "edges": [
      {
        "station": "碧南中央",
        "line": "名鉄三河線",
        "station_cd": "3000502",
        "line_cd": "30005"
      }
    ]
  },
  "碧南中央": {
    "lat": 34.887395,
    "lon": 136.989476,
    "edges": [
      {
        "station": "碧南",
        "line": "名鉄三河線",
        "station_cd": "3000501",
        "line_cd": "30005"
      },
      {
        "station": "新川町",
        "line": "名鉄三河線",
        "station_cd": "3000503",
        "line_cd": "30005"
      }
    ]
  },
  "新川町": {
    "lat": 34.896619,
    "lon": 136.990312,
    "edges": [
      {
        "station": "碧南中央",
        "line": "名鉄三河線",
        "station_cd": "3000502",
        "line_cd": "30005"
      },
      {
        "station": "北新川",
        "line": "名鉄三河線",
        "station_cd": "3000504",
        "line_cd": "30005"
      }
    ]
  },
  "北新川": {
    "lat": 34.906018,
    "lon": 136.992475,
    "edges": [
      {
        "station": "新川町",
        "line": "名鉄三河線",
        "station_cd": "3000503",
        "line_cd": "30005"
      },
      {
        "station": "高浜港",
        "line": "名鉄三河線",
        "station_cd": "3000505",
        "line_cd": "30005"
      }
    ]
  },
  "高浜港": {
    "lat": 34.921536,
    "lon": 136.989391,
    "edges": [
      {
        "station": "北新川",
        "line": "名鉄三河線",
        "station_cd": "3000504",
        "line_cd": "30005"
      },
      {
        "station": "三河高浜",
        "line": "名鉄三河線",
        "station_cd": "3000506",
        "line_cd": "30005"
      }
    ]
  },
  "三河高浜": {
    "lat": 34.930796,
    "lon": 136.989954,
    "edges": [
      {
        "station": "高浜港",
        "line": "名鉄三河線",
        "station_cd": "3000505",
        "line_cd": "30005"
      },
      {
        "station": "吉浜",
        "line": "名鉄三河線",
        "station_cd": "3000507",
        "line_cd": "30005"
      }
    ]
  },
  "吉浜": {
    "lat": 34.946327,
    "lon": 136.98919,
    "edges": [
      {
        "station": "三河高浜",
        "line": "名鉄三河線",
        "station_cd": "3000506",
        "line_cd": "30005"
      },
      {
        "station": "小垣江",
        "line": "名鉄三河線",
        "station_cd": "3000508",
        "line_cd": "30005"
      }
    ]
  },
  "小垣江": {
    "lat": 34.9639,
    "lon": 136.995455,
    "edges": [
      {
        "station": "吉浜",
        "line": "名鉄三河線",
        "station_cd": "3000507",
        "line_cd": "30005"
      },
      {
        "station": "刈谷市",
        "line": "名鉄三河線",
        "station_cd": "3000509",
        "line_cd": "30005"
      }
    ]
  },
  "刈谷市": {
    "lat": 34.984803,
    "lon": 136.993844,
    "edges": [
      {
        "station": "小垣江",
        "line": "名鉄三河線",
        "station_cd": "3000508",
        "line_cd": "30005"
      },
      {
        "station": "刈谷",
        "line": "名鉄三河線",
        "station_cd": "3000510",
        "line_cd": "30005"
      }
    ]
  },
  "重原": {
    "lat": 34.994824,
    "lon": 137.023727,
    "edges": [
      {
        "station": "刈谷",
        "line": "名鉄三河線",
        "station_cd": "3000510",
        "line_cd": "30005"
      },
      {
        "station": "知立",
        "line": "名鉄三河線",
        "station_cd": "3000512",
        "line_cd": "30005"
      }
    ]
  },
  "三河知立": {
    "lat": 35.005722,
    "lon": 137.054972,
    "edges": [
      {
        "station": "知立",
        "line": "名鉄三河線",
        "station_cd": "3000512",
        "line_cd": "30005"
      },
      {
        "station": "三河八橋",
        "line": "名鉄三河線",
        "station_cd": "3000514",
        "line_cd": "30005"
      }
    ]
  },
  "三河八橋": {
    "lat": 35.010913,
    "lon": 137.077147,
    "edges": [
      {
        "station": "三河知立",
        "line": "名鉄三河線",
        "station_cd": "3000513",
        "line_cd": "30005"
      },
      {
        "station": "若林",
        "line": "名鉄三河線",
        "station_cd": "3000515",
        "line_cd": "30005"
      }
    ]
  },
  "若林": {
    "lat": 35.026284,
    "lon": 137.095851,
    "edges": [
      {
        "station": "三河八橋",
        "line": "名鉄三河線",
        "station_cd": "3000514",
        "line_cd": "30005"
      },
      {
        "station": "竹村",
        "line": "名鉄三河線",
        "station_cd": "3000516",
        "line_cd": "30005"
      }
    ]
  },
  "竹村": {
    "lat": 35.040067,
    "lon": 137.11476,
    "edges": [
      {
        "station": "若林",
        "line": "名鉄三河線",
        "station_cd": "3000515",
        "line_cd": "30005"
      },
      {
        "station": "土橋",
        "line": "名鉄三河線",
        "station_cd": "3000517",
        "line_cd": "30005"
      }
    ]
  },
  "土橋": {
    "lat": 35.058179,
    "lon": 137.129572,
    "edges": [
      {
        "station": "竹村",
        "line": "名鉄三河線",
        "station_cd": "3000516",
        "line_cd": "30005"
      },
      {
        "station": "上挙母",
        "line": "名鉄三河線",
        "station_cd": "3000518",
        "line_cd": "30005"
      }
    ]
  },
  "上挙母": {
    "lat": 35.071854,
    "lon": 137.154453,
    "edges": [
      {
        "station": "土橋",
        "line": "名鉄三河線",
        "station_cd": "3000517",
        "line_cd": "30005"
      },
      {
        "station": "豊田市",
        "line": "名鉄三河線",
        "station_cd": "3000519",
        "line_cd": "30005"
      }
    ]
  },
  "豊田市": {
    "lat": 35.087305,
    "lon": 137.156227,
    "edges": [
      {
        "station": "上挙母",
        "line": "名鉄三河線",
        "station_cd": "3000518",
        "line_cd": "30005"
      },
      {
        "station": "梅坪",
        "line": "名鉄三河線",
        "station_cd": "3000520",
        "line_cd": "30005"
      },
      {
        "station": "梅坪",
        "line": "名鉄豊田線",
        "station_cd": "3000602",
        "line_cd": "30006"
      }
    ]
  },
  "梅坪": {
    "lat": 35.099654,
    "lon": 137.162206,
    "edges": [
      {
        "station": "豊田市",
        "line": "名鉄三河線",
        "station_cd": "3000519",
        "line_cd": "30005"
      },
      {
        "station": "越戸",
        "line": "名鉄三河線",
        "station_cd": "3000521",
        "line_cd": "30005"
      },
      {
        "station": "豊田市",
        "line": "名鉄豊田線",
        "station_cd": "3000601",
        "line_cd": "30006"
      },
      {
        "station": "上豊田",
        "line": "名鉄豊田線",
        "station_cd": "3000603",
        "line_cd": "30006"
      }
    ]
  },
  "越戸": {
    "lat": 35.10769,
    "lon": 137.180178,
    "edges": [
      {
        "station": "梅坪",
        "line": "名鉄三河線",
        "station_cd": "3000520",
        "line_cd": "30005"
      },
      {
        "station": "平戸橋",
        "line": "名鉄三河線",
        "station_cd": "3000522",
        "line_cd": "30005"
      }
    ]
  },
  "平戸橋": {
    "lat": 35.114628,
    "lon": 137.184725,
    "edges": [
      {
        "station": "越戸",
        "line": "名鉄三河線",
        "station_cd": "3000521",
        "line_cd": "30005"
      },
      {
        "station": "猿投",
        "line": "名鉄三河線",
        "station_cd": "3000523",
        "line_cd": "30005"
      }
    ]
  },
  "猿投": {
    "lat": 35.122613,
    "lon": 137.178739,
    "edges": [
      {
        "station": "平戸橋",
        "line": "名鉄三河線",
        "station_cd": "3000522",
        "line_cd": "30005"
      }
    ]
  },
  "上豊田": {
    "lat": 35.116168,
    "lon": 137.15535,
    "edges": [
      {
        "station": "梅坪",
        "line": "名鉄豊田線",
        "station_cd": "3000602",
        "line_cd": "30006"
      },
      {
        "station": "浄水",
        "line": "名鉄豊田線",
        "station_cd": "3000604",
        "line_cd": "30006"
      }
    ]
  },
  "浄水": {
    "lat": 35.121298,
    "lon": 137.137186,
    "edges": [
      {
        "station": "上豊田",
        "line": "名鉄豊田線",
        "station_cd": "3000603",
        "line_cd": "30006"
      },
      {
        "station": "三好ヶ丘",
        "line": "名鉄豊田線",
        "station_cd": "3000605",
        "line_cd": "30006"
      }
    ]
  },
  "三好ヶ丘": {
    "lat": 35.126918,
    "lon": 137.111219,
    "edges": [
      {
        "station": "浄水",
        "line": "名鉄豊田線",
        "station_cd": "3000604",
        "line_cd": "30006"
      },
      {
        "station": "黒笹",
        "line": "名鉄豊田線",
        "station_cd": "3000606",
        "line_cd": "30006"
      }
    ]
  },
  "黒笹": {
    "lat": 35.127681,
    "lon": 137.091365,
    "edges": [
      {
        "station": "三好ヶ丘",
        "line": "名鉄豊田線",
        "station_cd": "3000605",
        "line_cd": "30006"
      },
      {
        "station": "米野木",
        "line": "名鉄豊田線",
        "station_cd": "3000607",
        "line_cd": "30006"
      }
    ]
  },
  "米野木": {
    "lat": 35.123728,
    "lon": 137.06702,
    "edges": [
      {
        "station": "黒笹",
        "line": "名鉄豊田線",
        "station_cd": "3000606",
        "line_cd": "30006"
      },
      {
        "station": "日進",
        "line": "名鉄豊田線",
        "station_cd": "3000608",
        "line_cd": "30006"
      }
    ]
  },
  "日進": {
    "lat": 35.118378,
    "lon": 137.04878,
    "edges": [
      {
        "station": "米野木",
        "line": "名鉄豊田線",
        "station_cd": "3000607",
        "line_cd": "30006"
      },
      {
        "station": "赤池",
        "line": "名鉄豊田線",
        "station_cd": "3000609",
        "line_cd": "30006"
      }
    ]
  },
  "赤池": {
    "lat": 35.121097,
    "lon": 137.017978,
    "edges": [
      {
        "station": "日進",
        "line": "名鉄豊田線",
        "station_cd": "3000608",
        "line_cd": "30006"
      },
      {
        "station": "平針",
        "line": "地下鉄鶴舞線",
        "station_cd": "9951619",
        "line_cd": "99516"
      }
    ]
  },
  "常滑": {
    "lat": 34.891167,
    "lon": 136.834992,
    "edges": [
      {
        "station": "りんくう常滑",
        "line": "名鉄常滑・空港線",
        "station_cd": "3000702",
        "line_cd": "30007"
      },
      {
        "station": "多屋",
        "line": "名鉄常滑線",
        "station_cd": "3000825",
        "line_cd": "30008"
      }
    ]
  },
  "りんくう常滑": {
    "lat": 34.87967,
    "lon": 136.828164,
    "edges": [
      {
        "station": "常滑",
        "line": "名鉄常滑・空港線",
        "station_cd": "3000701",
        "line_cd": "30007"
      },
      {
        "station": "中部国際空港",
        "line": "名鉄常滑・空港線",
        "station_cd": "3000703",
        "line_cd": "30007"
      }
    ]
  },
  "中部国際空港": {
    "lat": 34.859262,
    "lon": 136.816382,
    "edges": [
      {
        "station": "りんくう常滑",
        "line": "名鉄常滑・空港線",
        "station_cd": "3000702",
        "line_cd": "30007"
      }
    ]
  },
  "豊田本町": {
    "lat": 35.113586,
    "lon": 136.910877,
    "edges": [
      {
        "station": "神宮前",
        "line": "名鉄常滑線",
        "station_cd": "3000804",
        "line_cd": "30008"
      },
      {
        "station": "道徳",
        "line": "名鉄常滑線",
        "station_cd": "3000806",
        "line_cd": "30008"
      }
    ]
  },
  "道徳": {
    "lat": 35.105712,
    "lon": 136.909409,
    "edges": [
      {
        "station": "豊田本町",
        "line": "名鉄常滑線",
        "station_cd": "3000805",
        "line_cd": "30008"
      },
      {
        "station": "大江",
        "line": "名鉄常滑線",
        "station_cd": "3000807",
        "line_cd": "30008"
      }
    ]
  },
  "大江": {
    "lat": 35.093258,
    "lon": 136.912758,
    "edges": [
      {
        "station": "道徳",
        "line": "名鉄常滑線",
        "station_cd": "3000806",
        "line_cd": "30008"
      },
      {
        "station": "大同町",
        "line": "名鉄常滑線",
        "station_cd": "3000808",
        "line_cd": "30008"
      },
      {
        "station": "東名古屋港",
        "line": "名鉄築港線",
        "station_cd": "3001102",
        "line_cd": "30011"
      }
    ]
  },
  "大同町": {
    "lat": 35.080268,
    "lon": 136.909314,
    "edges": [
      {
        "station": "大江",
        "line": "名鉄常滑線",
        "station_cd": "3000807",
        "line_cd": "30008"
      },
      {
        "station": "柴田",
        "line": "名鉄常滑線",
        "station_cd": "3000809",
        "line_cd": "30008"
      }
    ]
  },
  "柴田": {
    "lat": 35.072774,
    "lon": 136.909126,
    "edges": [
      {
        "station": "大同町",
        "line": "名鉄常滑線",
        "station_cd": "3000808",
        "line_cd": "30008"
      },
      {
        "station": "名和",
        "line": "名鉄常滑線",
        "station_cd": "3000810",
        "line_cd": "30008"
      }
    ]
  },
  "名和": {
    "lat": 35.060914,
    "lon": 136.911709,
    "edges": [
      {
        "station": "柴田",
        "line": "名鉄常滑線",
        "station_cd": "3000809",
        "line_cd": "30008"
      },
      {
        "station": "聚楽園",
        "line": "名鉄常滑線",
        "station_cd": "3000811",
        "line_cd": "30008"
      }
    ]
  },
  "聚楽園": {
    "lat": 35.042857,
    "lon": 136.90304,
    "edges": [
      {
        "station": "名和",
        "line": "名鉄常滑線",
        "station_cd": "3000810",
        "line_cd": "30008"
      },
      {
        "station": "新日鉄前",
        "line": "名鉄常滑線",
        "station_cd": "3000812",
        "line_cd": "30008"
      }
    ]
  },
  "新日鉄前": {
    "lat": 35.035161,
    "lon": 136.899491,
    "edges": [
      {
        "station": "聚楽園",
        "line": "名鉄常滑線",
        "station_cd": "3000811",
        "line_cd": "30008"
      },
      {
        "station": "太田川",
        "line": "名鉄常滑線",
        "station_cd": "3000813",
        "line_cd": "30008"
      }
    ]
  },
  "太田川": {
    "lat": 35.020221,
    "lon": 136.892504,
    "edges": [
      {
        "station": "新日鉄前",
        "line": "名鉄常滑線",
        "station_cd": "3000812",
        "line_cd": "30008"
      },
      {
        "station": "尾張横須賀",
        "line": "名鉄常滑線",
        "station_cd": "3000814",
        "line_cd": "30008"
      },
      {
        "station": "高横須賀",
        "line": "名鉄河和線",
        "station_cd": "3000902",
        "line_cd": "30009"
      }
    ]
  },
  "尾張横須賀": {
    "lat": 35.010132,
    "lon": 136.885655,
    "edges": [
      {
        "station": "太田川",
        "line": "名鉄常滑線",
        "station_cd": "3000813",
        "line_cd": "30008"
      },
      {
        "station": "寺本",
        "line": "名鉄常滑線",
        "station_cd": "3000815",
        "line_cd": "30008"
      }
    ]
  },
  "寺本": {
    "lat": 35.000191,
    "lon": 136.875498,
    "edges": [
      {
        "station": "尾張横須賀",
        "line": "名鉄常滑線",
        "station_cd": "3000814",
        "line_cd": "30008"
      },
      {
        "station": "朝倉",
        "line": "名鉄常滑線",
        "station_cd": "3000816",
        "line_cd": "30008"
      }
    ]
  },
  "朝倉": {
    "lat": 34.993858,
    "lon": 136.863419,
    "edges": [
      {
        "station": "寺本",
        "line": "名鉄常滑線",
        "station_cd": "3000815",
        "line_cd": "30008"
      },
      {
        "station": "古見",
        "line": "名鉄常滑線",
        "station_cd": "3000817",
        "line_cd": "30008"
      }
    ]
  },
  "古見": {
    "lat": 34.987809,
    "lon": 136.856673,
    "edges": [
      {
        "station": "朝倉",
        "line": "名鉄常滑線",
        "station_cd": "3000816",
        "line_cd": "30008"
      },
      {
        "station": "長浦",
        "line": "名鉄常滑線",
        "station_cd": "3000818",
        "line_cd": "30008"
      }
    ]
  },
  "長浦": {
    "lat": 34.978432,
    "lon": 136.847808,
    "edges": [
      {
        "station": "古見",
        "line": "名鉄常滑線",
        "station_cd": "3000817",
        "line_cd": "30008"
      },
      {
        "station": "日長",
        "line": "名鉄常滑線",
        "station_cd": "3000819",
        "line_cd": "30008"
      }
    ]
  },
  "日長": {
    "lat": 34.96162,
    "lon": 136.832152,
    "edges": [
      {
        "station": "長浦",
        "line": "名鉄常滑線",
        "station_cd": "3000818",
        "line_cd": "30008"
      },
      {
        "station": "新舞子",
        "line": "名鉄常滑線",
        "station_cd": "3000820",
        "line_cd": "30008"
      }
    ]
  },
  "新舞子": {
    "lat": 34.949689,
    "lon": 136.828669,
    "edges": [
      {
        "station": "日長",
        "line": "名鉄常滑線",
        "station_cd": "3000819",
        "line_cd": "30008"
      },
      {
        "station": "大野町",
        "line": "名鉄常滑線",
        "station_cd": "3000821",
        "line_cd": "30008"
      }
    ]
  },
  "大野町": {
    "lat": 34.935441,
    "lon": 136.827641,
    "edges": [
      {
        "station": "新舞子",
        "line": "名鉄常滑線",
        "station_cd": "3000820",
        "line_cd": "30008"
      },
      {
        "station": "西ノ口",
        "line": "名鉄常滑線",
        "station_cd": "3000822",
        "line_cd": "30008"
      }
    ]
  },
  "西ノ口": {
    "lat": 34.926759,
    "lon": 136.82663,
    "edges": [
      {
        "station": "大野町",
        "line": "名鉄常滑線",
        "station_cd": "3000821",
        "line_cd": "30008"
      },
      {
        "station": "蒲池",
        "line": "名鉄常滑線",
        "station_cd": "3000823",
        "line_cd": "30008"
      }
    ]
  },
  "蒲池": {
    "lat": 34.915408,
    "lon": 136.825536,
    "edges": [
      {
        "station": "西ノ口",
        "line": "名鉄常滑線",
        "station_cd": "3000822",
        "line_cd": "30008"
      },
      {
        "station": "榎戸",
        "line": "名鉄常滑線",
        "station_cd": "3000824",
        "line_cd": "30008"
      }
    ]
  },
  "榎戸": {
    "lat": 34.90489,
    "lon": 136.82822,
    "edges": [
      {
        "station": "蒲池",
        "line": "名鉄常滑線",
        "station_cd": "3000823",
        "line_cd": "30008"
      },
      {
        "station": "多屋",
        "line": "名鉄常滑線",
        "station_cd": "3000825",
        "line_cd": "30008"
      }
    ]
  },
  "多屋": {
    "lat": 34.896983,
    "lon": 136.830695,
    "edges": [
      {
        "station": "榎戸",
        "line": "名鉄常滑線",
        "station_cd": "3000824",
        "line_cd": "30008"
      },
      {
        "station": "常滑",
        "line": "名鉄常滑線",
        "station_cd": "3000826",
        "line_cd": "30008"
      }
    ]
  },
  "高横須賀": {
    "lat": 35.009608,
    "lon": 136.893696,
    "edges": [
      {
        "station": "太田川",
        "line": "名鉄河和線",
        "station_cd": "3000901",
        "line_cd": "30009"
      },
      {
        "station": "加木屋中ノ池",
        "line": "名鉄河和線",
        "station_cd": "3000922",
        "line_cd": "30009"
      }
    ]
  },
  "加木屋中ノ池": {
    "lat": 35.0,
    "lon": 136.902583,
    "edges": [
      {
        "station": "高横須賀",
        "line": "名鉄河和線",
        "station_cd": "3000902",
        "line_cd": "30009"
      },
      {
        "station": "南加木屋",
        "line": "名鉄河和線",
        "station_cd": "3000903",
        "line_cd": "30009"
      }
    ]
  },
  "南加木屋": {
    "lat": 34.989216,
    "lon": 136.906853,
    "edges": [
      {
        "station": "八幡新田",
        "line": "名鉄河和線",
        "station_cd": "3000904",
        "line_cd": "30009"
      },
      {
        "station": "加木屋中ノ池",
        "line": "名鉄河和線",
        "station_cd": "3000922",
        "line_cd": "30009"
      }
    ]
  },
  "八幡新田": {
    "lat": 34.973674,
    "lon": 136.912578,
    "edges": [
      {
        "station": "南加木屋",
        "line": "名鉄河和線",
        "station_cd": "3000903",
        "line_cd": "30009"
      },
      {
        "station": "巽ヶ丘",
        "line": "名鉄河和線",
        "station_cd": "3000905",
        "line_cd": "30009"
      }
    ]
  },
  "巽ヶ丘": {
    "lat": 34.962265,
    "lon": 136.915556,
    "edges": [
      {
        "station": "八幡新田",
        "line": "名鉄河和線",
        "station_cd": "3000904",
        "line_cd": "30009"
      },
      {
        "station": "白沢",
        "line": "名鉄河和線",
        "station_cd": "3000906",
        "line_cd": "30009"
      }
    ]
  },
  "白沢": {
    "lat": 34.955219,
    "lon": 136.91537,
    "edges": [
      {
        "station": "巽ヶ丘",
        "line": "名鉄河和線",
        "station_cd": "3000905",
        "line_cd": "30009"
      },
      {
        "station": "坂部",
        "line": "名鉄河和線",
        "station_cd": "3000907",
        "line_cd": "30009"
      }
    ]
  },
  "坂部": {
    "lat": 34.941579,
    "lon": 136.916562,
    "edges": [
      {
        "station": "白沢",
        "line": "名鉄河和線",
        "station_cd": "3000906",
        "line_cd": "30009"
      },
      {
        "station": "阿久比",
        "line": "名鉄河和線",
        "station_cd": "3000908",
        "line_cd": "30009"
      }
    ]
  },
  "阿久比": {
    "lat": 34.931256,
    "lon": 136.918517,
    "edges": [
      {
        "station": "坂部",
        "line": "名鉄河和線",
        "station_cd": "3000907",
        "line_cd": "30009"
      },
      {
        "station": "植大",
        "line": "名鉄河和線",
        "station_cd": "3000910",
        "line_cd": "30009"
      }
    ]
  },
  "植大": {
    "lat": 34.917457,
    "lon": 136.923448,
    "edges": [
      {
        "station": "阿久比",
        "line": "名鉄河和線",
        "station_cd": "3000908",
        "line_cd": "30009"
      },
      {
        "station": "半田口",
        "line": "名鉄河和線",
        "station_cd": "3000911",
        "line_cd": "30009"
      }
    ]
  },
  "半田口": {
    "lat": 34.909111,
    "lon": 136.925462,
    "edges": [
      {
        "station": "植大",
        "line": "名鉄河和線",
        "station_cd": "3000910",
        "line_cd": "30009"
      },
      {
        "station": "住吉町",
        "line": "名鉄河和線",
        "station_cd": "3000912",
        "line_cd": "30009"
      }
    ]
  },
  "住吉町": {
    "lat": 34.902042,
    "lon": 136.925684,
    "edges": [
      {
        "station": "半田口",
        "line": "名鉄河和線",
        "station_cd": "3000911",
        "line_cd": "30009"
      },
      {
        "station": "知多半田",
        "line": "名鉄河和線",
        "station_cd": "3000913",
        "line_cd": "30009"
      }
    ]
  },
  "知多半田": {
    "lat": 34.893931,
    "lon": 136.925954,
    "edges": [
      {
        "station": "住吉町",
        "line": "名鉄河和線",
        "station_cd": "3000912",
        "line_cd": "30009"
      },
      {
        "station": "成岩",
        "line": "名鉄河和線",
        "station_cd": "3000914",
        "line_cd": "30009"
      }
    ]
  },
  "成岩": {
    "lat": 34.886209,
    "lon": 136.921879,
    "edges": [
      {
        "station": "知多半田",
        "line": "名鉄河和線",
        "station_cd": "3000913",
        "line_cd": "30009"
      },
      {
        "station": "青山",
        "line": "名鉄河和線",
        "station_cd": "3000915",
        "line_cd": "30009"
      }
    ]
  },
  "青山": {
    "lat": 34.878132,
    "lon": 136.917,
    "edges": [
      {
        "station": "成岩",
        "line": "名鉄河和線",
        "station_cd": "3000914",
        "line_cd": "30009"
      },
      {
        "station": "上ゲ",
        "line": "名鉄河和線",
        "station_cd": "3000916",
        "line_cd": "30009"
      }
    ]
  },
  "上ゲ": {
    "lat": 34.858389,
    "lon": 136.916403,
    "edges": [
      {
        "station": "青山",
        "line": "名鉄河和線",
        "station_cd": "3000915",
        "line_cd": "30009"
      },
      {
        "station": "知多武豊",
        "line": "名鉄河和線",
        "station_cd": "3000917",
        "line_cd": "30009"
      }
    ]
  },
  "知多武豊": {
    "lat": 34.850732,
    "lon": 136.916439,
    "edges": [
      {
        "station": "上ゲ",
        "line": "名鉄河和線",
        "station_cd": "3000916",
        "line_cd": "30009"
      },
      {
        "station": "富貴",
        "line": "名鉄河和線",
        "station_cd": "3000918",
        "line_cd": "30009"
      }
    ]
  },
  "富貴": {
    "lat": 34.828823,
    "lon": 136.917043,
    "edges": [
      {
        "station": "知多武豊",
        "line": "名鉄河和線",
        "station_cd": "3000917",
        "line_cd": "30009"
      },
      {
        "station": "河和口",
        "line": "名鉄河和線",
        "station_cd": "3000920",
        "line_cd": "30009"
      },
      {
        "station": "上野間",
        "line": "名鉄知多新線",
        "station_cd": "3001002",
        "line_cd": "30010"
      }
    ]
  },
  "河和口": {
    "lat": 34.797805,
    "lon": 136.918618,
    "edges": [
      {
        "station": "富貴",
        "line": "名鉄河和線",
        "station_cd": "3000918",
        "line_cd": "30009"
      },
      {
        "station": "河和",
        "line": "名鉄河和線",
        "station_cd": "3000921",
        "line_cd": "30009"
      }
    ]
  },
  "河和": {
    "lat": 34.777771,
    "lon": 136.912528,
    "edges": [
      {
        "station": "河和口",
        "line": "名鉄河和線",
        "station_cd": "3000920",
        "line_cd": "30009"
      }
    ]
  },
  "上野間": {
    "lat": 34.807284,
    "lon": 136.866854,
    "edges": [
      {
        "station": "富貴",
        "line": "名鉄知多新線",
        "station_cd": "3001001",
        "line_cd": "30010"
      },
      {
        "station": "美浜緑苑",
        "line": "名鉄知多新線",
        "station_cd": "3001003",
        "line_cd": "30010"
      }
    ]
  },
  "美浜緑苑": {
    "lat": 34.80028,
    "lon": 136.863063,
    "edges": [
      {
        "station": "上野間",
        "line": "名鉄知多新線",
        "station_cd": "3001002",
        "line_cd": "30010"
      },
      {
        "station": "知多奥田",
        "line": "名鉄知多新線",
        "station_cd": "3001004",
        "line_cd": "30010"
      }
    ]
  },
  "知多奥田": {
    "lat": 34.787617,
    "lon": 136.864488,
    "edges": [
      {
        "station": "美浜緑苑",
        "line": "名鉄知多新線",
        "station_cd": "3001003",
        "line_cd": "30010"
      },
      {
        "station": "野間",
        "line": "名鉄知多新線",
        "station_cd": "3001005",
        "line_cd": "30010"
      }
    ]
  },
  "野間": {
    "lat": 34.7723,
    "lon": 136.860683,
    "edges": [
      {
        "station": "知多奥田",
        "line": "名鉄知多新線",
        "station_cd": "3001004",
        "line_cd": "30010"
      },
      {
        "station": "内海",
        "line": "名鉄知多新線",
        "station_cd": "3001006",
        "line_cd": "30010"
      }
    ]
  },
  "内海": {
    "lat": 34.744631,
    "lon": 136.875544,
    "edges": [
      {
        "station": "野間",
        "line": "名鉄知多新線",
        "station_cd": "3001005",
        "line_cd": "30010"
      }
    ]
  },
  "東名古屋港": {
    "lat": 35.089091,
    "lon": 136.899255,
    "edges": [
      {
        "station": "大江",
        "line": "名鉄築港線",
        "station_cd": "3001101",
        "line_cd": "30011"
      }
    ]
  },
  "栄町": {
    "lat": 35.170567,
    "lon": 136.908962,
    "edges": [
      {
        "station": "東大手",
        "line": "名鉄瀬戸線",
        "station_cd": "3001202",
        "line_cd": "30012"
      }
    ]
  },
  "東大手": {
    "lat": 35.183727,
    "lon": 136.908376,
    "edges": [
      {
        "station": "栄町",
        "line": "名鉄瀬戸線",
        "station_cd": "3001201",
        "line_cd": "30012"
      },
      {
        "station": "清水",
        "line": "名鉄瀬戸線",
        "station_cd": "3001203",
        "line_cd": "30012"
      }
    ]
  },
  "清水": {
    "lat": 35.187152,
    "lon": 136.913814,
    "edges": [
      {
        "station": "東大手",
        "line": "名鉄瀬戸線",
        "station_cd": "3001202",
        "line_cd": "30012"
      },
      {
        "station": "尼ヶ坂",
        "line": "名鉄瀬戸線",
        "station_cd": "3001204",
        "line_cd": "30012"
      }
    ]
  },
  "尼ヶ坂": {
    "lat": 35.187957,
    "lon": 136.91928,
    "edges": [
      {
        "station": "清水",
        "line": "名鉄瀬戸線",
        "station_cd": "3001203",
        "line_cd": "30012"
      },
      {
        "station": "森下",
        "line": "名鉄瀬戸線",
        "station_cd": "3001205",
        "line_cd": "30012"
      }
    ]
  },
  "森下": {
    "lat": 35.188299,
    "lon": 136.929657,
    "edges": [
      {
        "station": "尼ヶ坂",
        "line": "名鉄瀬戸線",
        "station_cd": "3001204",
        "line_cd": "30012"
      },
      {
        "station": "大曽根",
        "line": "名鉄瀬戸線",
        "station_cd": "3001206",
        "line_cd": "30012"
      }
    ]
  },
  "矢田": {
    "lat": 35.193699,
    "lon": 136.947802,
    "edges": [
      {
        "station": "大曽根",
        "line": "名鉄瀬戸線",
        "station_cd": "3001206",
        "line_cd": "30012"
      },
      {
        "station": "守山自衛隊前",
        "line": "名鉄瀬戸線",
        "station_cd": "3001208",
        "line_cd": "30012"
      }
    ]
  },
  "守山自衛隊前": {
    "lat": 35.196258,
    "lon": 136.957843,
    "edges": [
      {
        "station": "矢田",
        "line": "名鉄瀬戸線",
        "station_cd": "3001207",
        "line_cd": "30012"
      },
      {
        "station": "瓢箪山",
        "line": "名鉄瀬戸線",
        "station_cd": "3001209",
        "line_cd": "30012"
      }
    ]
  },
  "瓢箪山": {
    "lat": 35.197222,
    "lon": 136.965048,
    "edges": [
      {
        "station": "守山自衛隊前",
        "line": "名鉄瀬戸線",
        "station_cd": "3001208",
        "line_cd": "30012"
      },
      {
        "station": "小幡",
        "line": "名鉄瀬戸線",
        "station_cd": "3001210",
        "line_cd": "30012"
      }
    ]
  },
  "小幡": {
    "lat": 35.200216,
    "lon": 136.975769,
    "edges": [
      {
        "station": "瓢箪山",
        "line": "名鉄瀬戸線",
        "station_cd": "3001209",
        "line_cd": "30012"
      },
      {
        "station": "喜多山",
        "line": "名鉄瀬戸線",
        "station_cd": "3001211",
        "line_cd": "30012"
      }
    ]
  },
  "喜多山": {
    "lat": 35.205099,
    "lon": 136.987735,
    "edges": [
      {
        "station": "小幡",
        "line": "名鉄瀬戸線",
        "station_cd": "3001210",
        "line_cd": "30012"
      },
      {
        "station": "大森・金城学院前",
        "line": "名鉄瀬戸線",
        "station_cd": "3001212",
        "line_cd": "30012"
      }
    ]
  },
  "大森・金城学院前": {
    "lat": 35.206934,
    "lon": 136.996465,
    "edges": [
      {
        "station": "喜多山",
        "line": "名鉄瀬戸線",
        "station_cd": "3001211",
        "line_cd": "30012"
      },
      {
        "station": "印場",
        "line": "名鉄瀬戸線",
        "station_cd": "3001213",
        "line_cd": "30012"
      }
    ]
  },
  "印場": {
    "lat": 35.211085,
    "lon": 137.011132,
    "edges": [
      {
        "station": "大森・金城学院前",
        "line": "名鉄瀬戸線",
        "station_cd": "3001212",
        "line_cd": "30012"
      },
      {
        "station": "旭前",
        "line": "名鉄瀬戸線",
        "station_cd": "3001214",
        "line_cd": "30012"
      }
    ]
  },
  "旭前": {
    "lat": 35.214162,
    "lon": 137.019706,
    "edges": [
      {
        "station": "印場",
        "line": "名鉄瀬戸線",
        "station_cd": "3001213",
        "line_cd": "30012"
      },
      {
        "station": "尾張旭",
        "line": "名鉄瀬戸線",
        "station_cd": "3001215",
        "line_cd": "30012"
      }
    ]
  },
  "尾張旭": {
    "lat": 35.216743,
    "lon": 137.036393,
    "edges": [
      {
        "station": "旭前",
        "line": "名鉄瀬戸線",
        "station_cd": "3001214",
        "line_cd": "30012"
      },
      {
        "station": "三郷",
        "line": "名鉄瀬戸線",
        "station_cd": "3001216",
        "line_cd": "30012"
      }
    ]
  },
  "三郷": {
    "lat": 35.216258,
    "lon": 137.052352,
    "edges": [
      {
        "station": "尾張旭",
        "line": "名鉄瀬戸線",
        "station_cd": "3001215",
        "line_cd": "30012"
      },
      {
        "station": "水野",
        "line": "名鉄瀬戸線",
        "station_cd": "3001217",
        "line_cd": "30012"
      }
    ]
  },
  "水野": {
    "lat": 35.224296,
    "lon": 137.069659,
    "edges": [
      {
        "station": "三郷",
        "line": "名鉄瀬戸線",
        "station_cd": "3001216",
        "line_cd": "30012"
      },
      {
        "station": "新瀬戸",
        "line": "名鉄瀬戸線",
        "station_cd": "3001218",
        "line_cd": "30012"
      }
    ]
  },
  "新瀬戸": {
    "lat": 35.225485,
    "lon": 137.077639,
    "edges": [
      {
        "station": "水野",
        "line": "名鉄瀬戸線",
        "station_cd": "3001217",
        "line_cd": "30012"
      },
      {
        "station": "瀬戸市役所前",
        "line": "名鉄瀬戸線",
        "station_cd": "3001219",
        "line_cd": "30012"
      }
    ]
  },
  "瀬戸市役所前": {
    "lat": 35.224986,
    "lon": 137.084177,
    "edges": [
      {
        "station": "新瀬戸",
        "line": "名鉄瀬戸線",
        "station_cd": "3001218",
        "line_cd": "30012"
      },
      {
        "station": "尾張瀬戸",
        "line": "名鉄瀬戸線",
        "station_cd": "3001220",
        "line_cd": "30012"
      }
    ]
  },
  "尾張瀬戸": {
    "lat": 35.225094,
    "lon": 137.09727,
    "edges": [
      {
        "station": "瀬戸市役所前",
        "line": "名鉄瀬戸線",
        "station_cd": "3001219",
        "line_cd": "30012"
      }
    ]
  },
  "甚目寺": {
    "lat": 35.195953,
    "lon": 136.825492,
    "edges": [
      {
        "station": "須ヶ口",
        "line": "名鉄津島線",
        "station_cd": "3001301",
        "line_cd": "30013"
      },
      {
        "station": "七宝",
        "line": "名鉄津島線",
        "station_cd": "3001303",
        "line_cd": "30013"
      }
    ]
  },
  "七宝": {
    "lat": 35.195775,
    "lon": 136.806413,
    "edges": [
      {
        "station": "甚目寺",
        "line": "名鉄津島線",
        "station_cd": "3001302",
        "line_cd": "30013"
      },
      {
        "station": "木田",
        "line": "名鉄津島線",
        "station_cd": "3001304",
        "line_cd": "30013"
      }
    ]
  },
  "木田": {
    "lat": 35.195328,
    "lon": 136.787865,
    "edges": [
      {
        "station": "七宝",
        "line": "名鉄津島線",
        "station_cd": "3001303",
        "line_cd": "30013"
      },
      {
        "station": "青塚",
        "line": "名鉄津島線",
        "station_cd": "3001305",
        "line_cd": "30013"
      }
    ]
  },
  "青塚": {
    "lat": 35.198674,
    "lon": 136.76708,
    "edges": [
      {
        "station": "木田",
        "line": "名鉄津島線",
        "station_cd": "3001304",
        "line_cd": "30013"
      },
      {
        "station": "勝幡",
        "line": "名鉄津島線",
        "station_cd": "3001306",
        "line_cd": "30013"
      }
    ]
  },
  "勝幡": {
    "lat": 35.195143,
    "lon": 136.750082,
    "edges": [
      {
        "station": "青塚",
        "line": "名鉄津島線",
        "station_cd": "3001305",
        "line_cd": "30013"
      },
      {
        "station": "藤浪",
        "line": "名鉄津島線",
        "station_cd": "3001307",
        "line_cd": "30013"
      }
    ]
  },
  "藤浪": {
    "lat": 35.188911,
    "lon": 136.738766,
    "edges": [
      {
        "station": "勝幡",
        "line": "名鉄津島線",
        "station_cd": "3001306",
        "line_cd": "30013"
      },
      {
        "station": "津島",
        "line": "名鉄津島線",
        "station_cd": "3001308",
        "line_cd": "30013"
      }
    ]
  },
  "津島": {
    "lat": 35.177982,
    "lon": 136.730995,
    "edges": [
      {
        "station": "藤浪",
        "line": "名鉄津島線",
        "station_cd": "3001307",
        "line_cd": "30013"
      },
      {
        "station": "日比野(名鉄)",
        "line": "名鉄尾西線",
        "station_cd": "3001405",
        "line_cd": "30014"
      },
      {
        "station": "町方",
        "line": "名鉄尾西線",
        "station_cd": "3001407",
        "line_cd": "30014"
      }
    ]
  },
  "弥富": {
    "lat": 35.114026,
    "lon": 136.725664,
    "edges": [
      {
        "station": "五ノ三",
        "line": "名鉄尾西線",
        "station_cd": "3001403",
        "line_cd": "30014"
      }
    ]
  },
  "五ノ三": {
    "lat": 35.129838,
    "lon": 136.711464,
    "edges": [
      {
        "station": "弥富",
        "line": "名鉄尾西線",
        "station_cd": "3001401",
        "line_cd": "30014"
      },
      {
        "station": "佐屋",
        "line": "名鉄尾西線",
        "station_cd": "3001404",
        "line_cd": "30014"
      }
    ]
  },
  "佐屋": {
    "lat": 35.147552,
    "lon": 136.716612,
    "edges": [
      {
        "station": "五ノ三",
        "line": "名鉄尾西線",
        "station_cd": "3001403",
        "line_cd": "30014"
      },
      {
        "station": "日比野(名鉄)",
        "line": "名鉄尾西線",
        "station_cd": "3001405",
        "line_cd": "30014"
      }
    ]
  },
  "日比野(名鉄)": {
    "lat": 35.163258,
    "lon": 136.728351,
    "edges": [
      {
        "station": "佐屋",
        "line": "名鉄尾西線",
        "station_cd": "3001404",
        "line_cd": "30014"
      },
      {
        "station": "津島",
        "line": "名鉄尾西線",
        "station_cd": "3001406",
        "line_cd": "30014"
      }
    ]
  },
  "町方": {
    "lat": 35.18898,
    "lon": 136.727551,
    "edges": [
      {
        "station": "津島",
        "line": "名鉄尾西線",
        "station_cd": "3001406",
        "line_cd": "30014"
      },
      {
        "station": "六輪",
        "line": "名鉄尾西線",
        "station_cd": "3001408",
        "line_cd": "30014"
      }
    ]
  },
  "六輪": {
    "lat": 35.202395,
    "lon": 136.729306,
    "edges": [
      {
        "station": "町方",
        "line": "名鉄尾西線",
        "station_cd": "3001407",
        "line_cd": "30014"
      },
      {
        "station": "渕高",
        "line": "名鉄尾西線",
        "station_cd": "3001409",
        "line_cd": "30014"
      }
    ]
  },
  "渕高": {
    "lat": 35.213944,
    "lon": 136.727256,
    "edges": [
      {
        "station": "六輪",
        "line": "名鉄尾西線",
        "station_cd": "3001408",
        "line_cd": "30014"
      },
      {
        "station": "丸渕",
        "line": "名鉄尾西線",
        "station_cd": "3001410",
        "line_cd": "30014"
      }
    ]
  },
  "丸渕": {
    "lat": 35.222635,
    "lon": 136.728991,
    "edges": [
      {
        "station": "渕高",
        "line": "名鉄尾西線",
        "station_cd": "3001409",
        "line_cd": "30014"
      },
      {
        "station": "上丸渕",
        "line": "名鉄尾西線",
        "station_cd": "3001411",
        "line_cd": "30014"
      }
    ]
  },
  "上丸渕": {
    "lat": 35.233809,
    "lon": 136.732521,
    "edges": [
      {
        "station": "丸渕",
        "line": "名鉄尾西線",
        "station_cd": "3001410",
        "line_cd": "30014"
      },
      {
        "station": "森上",
        "line": "名鉄尾西線",
        "station_cd": "3001412",
        "line_cd": "30014"
      }
    ]
  },
  "森上": {
    "lat": 35.247229,
    "lon": 136.736698,
    "edges": [
      {
        "station": "上丸渕",
        "line": "名鉄尾西線",
        "station_cd": "3001411",
        "line_cd": "30014"
      },
      {
        "station": "山崎",
        "line": "名鉄尾西線",
        "station_cd": "3001413",
        "line_cd": "30014"
      }
    ]
  },
  "山崎": {
    "lat": 35.256548,
    "lon": 136.739372,
    "edges": [
      {
        "station": "森上",
        "line": "名鉄尾西線",
        "station_cd": "3001412",
        "line_cd": "30014"
      },
      {
        "station": "玉野",
        "line": "名鉄尾西線",
        "station_cd": "3001414",
        "line_cd": "30014"
      }
    ]
  },
  "玉野": {
    "lat": 35.266327,
    "lon": 136.747982,
    "edges": [
      {
        "station": "山崎",
        "line": "名鉄尾西線",
        "station_cd": "3001413",
        "line_cd": "30014"
      },
      {
        "station": "萩原",
        "line": "名鉄尾西線",
        "station_cd": "3001415",
        "line_cd": "30014"
      }
    ]
  },
  "萩原": {
    "lat": 35.277157,
    "lon": 136.757703,
    "edges": [
      {
        "station": "玉野",
        "line": "名鉄尾西線",
        "station_cd": "3001414",
        "line_cd": "30014"
      },
      {
        "station": "二子",
        "line": "名鉄尾西線",
        "station_cd": "3001416",
        "line_cd": "30014"
      }
    ]
  },
  "二子": {
    "lat": 35.283986,
    "lon": 136.766268,
    "edges": [
      {
        "station": "萩原",
        "line": "名鉄尾西線",
        "station_cd": "3001415",
        "line_cd": "30014"
      },
      {
        "station": "苅安賀",
        "line": "名鉄尾西線",
        "station_cd": "3001417",
        "line_cd": "30014"
      }
    ]
  },
  "苅安賀": {
    "lat": 35.287194,
    "lon": 136.778275,
    "edges": [
      {
        "station": "二子",
        "line": "名鉄尾西線",
        "station_cd": "3001416",
        "line_cd": "30014"
      },
      {
        "station": "観音寺",
        "line": "名鉄尾西線",
        "station_cd": "3001418",
        "line_cd": "30014"
      }
    ]
  },
  "観音寺": {
    "lat": 35.289716,
    "lon": 136.786191,
    "edges": [
      {
        "station": "苅安賀",
        "line": "名鉄尾西線",
        "station_cd": "3001417",
        "line_cd": "30014"
      },
      {
        "station": "名鉄一宮",
        "line": "名鉄尾西線",
        "station_cd": "3001419",
        "line_cd": "30014"
      }
    ]
  },
  "西一宮": {
    "lat": 35.307603,
    "lon": 136.791948,
    "edges": [
      {
        "station": "名鉄一宮",
        "line": "名鉄尾西線",
        "station_cd": "3001419",
        "line_cd": "30014"
      },
      {
        "station": "開明",
        "line": "名鉄尾西線",
        "station_cd": "3001421",
        "line_cd": "30014"
      }
    ]
  },
  "開明": {
    "lat": 35.31926,
    "lon": 136.7741,
    "edges": [
      {
        "station": "西一宮",
        "line": "名鉄尾西線",
        "station_cd": "3001420",
        "line_cd": "30014"
      },
      {
        "station": "奥町",
        "line": "名鉄尾西線",
        "station_cd": "3001422",
        "line_cd": "30014"
      }
    ]
  },
  "奥町": {
    "lat": 35.32434,
    "lon": 136.761092,
    "edges": [
      {
        "station": "開明",
        "line": "名鉄尾西線",
        "station_cd": "3001421",
        "line_cd": "30014"
      },
      {
        "station": "玉ノ井",
        "line": "名鉄尾西線",
        "station_cd": "3001423",
        "line_cd": "30014"
      }
    ]
  },
  "玉ノ井": {
    "lat": 35.334887,
    "lon": 136.757968,
    "edges": [
      {
        "station": "奥町",
        "line": "名鉄尾西線",
        "station_cd": "3001422",
        "line_cd": "30014"
      }
    ]
  },
  "下小田井": {
    "lat": 35.201878,
    "lon": 136.870638,
    "edges": [
      {
        "station": "東枇杷島",
        "line": "名鉄犬山線",
        "station_cd": "3001503",
        "line_cd": "30015"
      },
      {
        "station": "中小田井",
        "line": "名鉄犬山線",
        "station_cd": "3001505",
        "line_cd": "30015"
      }
    ]
  },
  "中小田井": {
    "lat": 35.214647,
    "lon": 136.876772,
    "edges": [
      {
        "station": "下小田井",
        "line": "名鉄犬山線",
        "station_cd": "3001504",
        "line_cd": "30015"
      },
      {
        "station": "上小田井",
        "line": "名鉄犬山線",
        "station_cd": "3001506",
        "line_cd": "30015"
      }
    ]
  },
  "上小田井": {
    "lat": 35.223482,
    "lon": 136.876941,
    "edges": [
      {
        "station": "中小田井",
        "line": "名鉄犬山線",
        "station_cd": "3001505",
        "line_cd": "30015"
      },
      {
        "station": "西春",
        "line": "名鉄犬山線",
        "station_cd": "3001507",
        "line_cd": "30015"
      },
      {
        "station": "庄内緑地公園",
        "line": "地下鉄鶴舞線",
        "station_cd": "9951602",
        "line_cd": "99516"
      }
    ]
  },
  "西春": {
    "lat": 35.244627,
    "lon": 136.871235,
    "edges": [
      {
        "station": "上小田井",
        "line": "名鉄犬山線",
        "station_cd": "3001506",
        "line_cd": "30015"
      },
      {
        "station": "徳重・名古屋芸大",
        "line": "名鉄犬山線",
        "station_cd": "3001508",
        "line_cd": "30015"
      }
    ]
  },
  "徳重・名古屋芸大": {
    "lat": 35.256045,
    "lon": 136.873384,
    "edges": [
      {
        "station": "西春",
        "line": "名鉄犬山線",
        "station_cd": "3001507",
        "line_cd": "30015"
      },
      {
        "station": "大山寺",
        "line": "名鉄犬山線",
        "station_cd": "3001509",
        "line_cd": "30015"
      }
    ]
  },
  "大山寺": {
    "lat": 35.263508,
    "lon": 136.874748,
    "edges": [
      {
        "station": "徳重・名古屋芸大",
        "line": "名鉄犬山線",
        "station_cd": "3001508",
        "line_cd": "30015"
      },
      {
        "station": "岩倉",
        "line": "名鉄犬山線",
        "station_cd": "3001510",
        "line_cd": "30015"
      }
    ]
  },
  "岩倉": {
    "lat": 35.277972,
    "lon": 136.873511,
    "edges": [
      {
        "station": "大山寺",
        "line": "名鉄犬山線",
        "station_cd": "3001509",
        "line_cd": "30015"
      },
      {
        "station": "石仏",
        "line": "名鉄犬山線",
        "station_cd": "3001511",
        "line_cd": "30015"
      }
    ]
  },
  "石仏": {
    "lat": 35.295545,
    "lon": 136.871144,
    "edges": [
      {
        "station": "岩倉",
        "line": "名鉄犬山線",
        "station_cd": "3001510",
        "line_cd": "30015"
      },
      {
        "station": "布袋",
        "line": "名鉄犬山線",
        "station_cd": "3001512",
        "line_cd": "30015"
      }
    ]
  },
  "布袋": {
    "lat": 35.317135,
    "lon": 136.872987,
    "edges": [
      {
        "station": "石仏",
        "line": "名鉄犬山線",
        "station_cd": "3001511",
        "line_cd": "30015"
      },
      {
        "station": "江南",
        "line": "名鉄犬山線",
        "station_cd": "3001513",
        "line_cd": "30015"
      }
    ]
  },
  "江南": {
    "lat": 35.33475,
    "lon": 136.872109,
    "edges": [
      {
        "station": "布袋",
        "line": "名鉄犬山線",
        "station_cd": "3001512",
        "line_cd": "30015"
      },
      {
        "station": "柏森",
        "line": "名鉄犬山線",
        "station_cd": "3001514",
        "line_cd": "30015"
      }
    ]
  },
  "柏森": {
    "lat": 35.344807,
    "lon": 136.900181,
    "edges": [
      {
        "station": "江南",
        "line": "名鉄犬山線",
        "station_cd": "3001513",
        "line_cd": "30015"
      },
      {
        "station": "扶桑",
        "line": "名鉄犬山線",
        "station_cd": "3001515",
        "line_cd": "30015"
      }
    ]
  },
  "扶桑": {
    "lat": 35.359557,
    "lon": 136.91597,
    "edges": [
      {
        "station": "柏森",
        "line": "名鉄犬山線",
        "station_cd": "3001514",
        "line_cd": "30015"
      },
      {
        "station": "木津用水",
        "line": "名鉄犬山線",
        "station_cd": "3001516",
        "line_cd": "30015"
      }
    ]
  },
  "木津用水": {
    "lat": 35.366914,
    "lon": 136.925977,
    "edges": [
      {
        "station": "扶桑",
        "line": "名鉄犬山線",
        "station_cd": "3001515",
        "line_cd": "30015"
      },
      {
        "station": "犬山口",
        "line": "名鉄犬山線",
        "station_cd": "3001517",
        "line_cd": "30015"
      }
    ]
  },
  "犬山口": {
    "lat": 35.374212,
    "lon": 136.939945,
    "edges": [
      {
        "station": "木津用水",
        "line": "名鉄犬山線",
        "station_cd": "3001516",
        "line_cd": "30015"
      },
      {
        "station": "犬山",
        "line": "名鉄犬山線",
        "station_cd": "3001518",
        "line_cd": "30015"
      }
    ]
  },
  "犬山": {
    "lat": 35.379871,
    "lon": 136.945536,
    "edges": [
      {
        "station": "犬山口",
        "line": "名鉄犬山線",
        "station_cd": "3001517",
        "line_cd": "30015"
      },
      {
        "station": "犬山遊園",
        "line": "名鉄犬山線",
        "station_cd": "3001519",
        "line_cd": "30015"
      },
      {
        "station": "富岡前",
        "line": "名鉄広見線",
        "station_cd": "3001702",
        "line_cd": "30017"
      },
      {
        "station": "羽黒",
        "line": "名鉄小牧線",
        "station_cd": "3001813",
        "line_cd": "30018"
      }
    ]
  },
  "犬山遊園": {
    "lat": 35.390331,
    "lon": 136.946894,
    "edges": [
      {
        "station": "犬山",
        "line": "名鉄犬山線",
        "station_cd": "3001518",
        "line_cd": "30015"
      },
      {
        "station": "成田山",
        "line": "犬山モノレール",
        "station_cd": "3001902",
        "line_cd": "30019"
      }
    ]
  },
  "富岡前": {
    "lat": 35.379508,
    "lon": 136.962112,
    "edges": [
      {
        "station": "犬山",
        "line": "名鉄広見線",
        "station_cd": "3001701",
        "line_cd": "30017"
      },
      {
        "station": "善師野",
        "line": "名鉄広見線",
        "station_cd": "3001703",
        "line_cd": "30017"
      }
    ]
  },
  "善師野": {
    "lat": 35.389744,
    "lon": 136.980027,
    "edges": [
      {
        "station": "富岡前",
        "line": "名鉄広見線",
        "station_cd": "3001702",
        "line_cd": "30017"
      }
    ]
  },
  "上飯田": {
    "lat": 35.203845,
    "lon": 136.929642,
    "edges": [
      {
        "station": "味鋺",
        "line": "名鉄小牧線",
        "station_cd": "3001802",
        "line_cd": "30018"
      },
      {
        "station": "平安通",
        "line": "地下鉄上飯田線",
        "station_cd": "9951801",
        "line_cd": "99518"
      }
    ]
  },
  "味鋺": {
    "lat": 35.222478,
    "lon": 136.936113,
    "edges": [
      {
        "station": "上飯田",
        "line": "名鉄小牧線",
        "station_cd": "3001801",
        "line_cd": "30018"
      },
      {
        "station": "味美",
        "line": "名鉄小牧線",
        "station_cd": "3001803",
        "line_cd": "30018"
      }
    ]
  },
  "味美": {
    "lat": 35.235209,
    "lon": 136.937134,
    "edges": [
      {
        "station": "味鋺",
        "line": "名鉄小牧線",
        "station_cd": "3001802",
        "line_cd": "30018"
      },
      {
        "station": "春日井",
        "line": "名鉄小牧線",
        "station_cd": "3001804",
        "line_cd": "30018"
      }
    ]
  },
  "牛山": {
    "lat": 35.264014,
    "lon": 136.931356,
    "edges": [
      {
        "station": "春日井",
        "line": "名鉄小牧線",
        "station_cd": "3001804",
        "line_cd": "30018"
      },
      {
        "station": "間内",
        "line": "名鉄小牧線",
        "station_cd": "3001806",
        "line_cd": "30018"
      }
    ]
  },
  "間内": {
    "lat": 35.271585,
    "lon": 136.9312,
    "edges": [
      {
        "station": "牛山",
        "line": "名鉄小牧線",
        "station_cd": "3001805",
        "line_cd": "30018"
      },
      {
        "station": "小牧口",
        "line": "名鉄小牧線",
        "station_cd": "3001807",
        "line_cd": "30018"
      }
    ]
  },
  "小牧口": {
    "lat": 35.281717,
    "lon": 136.927675,
    "edges": [
      {
        "station": "間内",
        "line": "名鉄小牧線",
        "station_cd": "3001806",
        "line_cd": "30018"
      },
      {
        "station": "小牧",
        "line": "名鉄小牧線",
        "station_cd": "3001808",
        "line_cd": "30018"
      }
    ]
  },
  "小牧": {
    "lat": 35.28915,
    "lon": 136.928461,
    "edges": [
      {
        "station": "小牧口",
        "line": "名鉄小牧線",
        "station_cd": "3001807",
        "line_cd": "30018"
      },
      {
        "station": "小牧原",
        "line": "名鉄小牧線",
        "station_cd": "3001809",
        "line_cd": "30018"
      }
    ]
  },
  "小牧原": {
    "lat": 35.300145,
    "lon": 136.935836,
    "edges": [
      {
        "station": "小牧",
        "line": "名鉄小牧線",
        "station_cd": "3001808",
        "line_cd": "30018"
      },
      {
        "station": "味岡",
        "line": "名鉄小牧線",
        "station_cd": "3001810",
        "line_cd": "30018"
      }
    ]
  },
  "味岡": {
    "lat": 35.309301,
    "lon": 136.940304,
    "edges": [
      {
        "station": "小牧原",
        "line": "名鉄小牧線",
        "station_cd": "3001809",
        "line_cd": "30018"
      },
      {
        "station": "田県神社前",
        "line": "名鉄小牧線",
        "station_cd": "3001811",
        "line_cd": "30018"
      }
    ]
  },
  "田県神社前": {
    "lat": 35.317422,
    "lon": 136.943675,
    "edges": [
      {
        "station": "味岡",
        "line": "名鉄小牧線",
        "station_cd": "3001810",
        "line_cd": "30018"
      },
      {
        "station": "楽田",
        "line": "名鉄小牧線",
        "station_cd": "3001812",
        "line_cd": "30018"
      }
    ]
  },
  "楽田": {
    "lat": 35.330548,
    "lon": 136.950101,
    "edges": [
      {
        "station": "田県神社前",
        "line": "名鉄小牧線",
        "station_cd": "3001811",
        "line_cd": "30018"
      },
      {
        "station": "羽黒",
        "line": "名鉄小牧線",
        "station_cd": "3001813",
        "line_cd": "30018"
      }
    ]
  },
  "羽黒": {
    "lat": 35.351519,
    "lon": 136.952486,
    "edges": [
      {
        "station": "楽田",
        "line": "名鉄小牧線",
        "station_cd": "3001812",
        "line_cd": "30018"
      },
      {
        "station": "犬山",
        "line": "名鉄小牧線",
        "station_cd": "3001814",
        "line_cd": "30018"
      }
    ]
  },
  "成田山": {
    "lat": 35.387426,
    "lon": 136.949646,
    "edges": [
      {
        "station": "犬山遊園",
        "line": "犬山モノレール",
        "station_cd": "3001901",
        "line_cd": "30019"
      },
      {
        "station": "動物園",
        "line": "犬山モノレール",
        "station_cd": "3001903",
        "line_cd": "30019"
      }
    ]
  },
  "動物園": {
    "lat": 35.390318,
    "lon": 136.956687,
    "edges": [
      {
        "station": "成田山",
        "line": "犬山モノレール",
        "station_cd": "3001902",
        "line_cd": "30019"
      }
    ]
  },
  "近鉄名古屋": {
    "lat": 35.169191,
    "lon": 136.883855,
    "edges": [
      {
        "station": "米野",
        "line": "近鉄名古屋線",
        "station_cd": "3102702",
        "line_cd": "31027"
      }
    ]
  },
  "米野": {
    "lat": 35.161354,
    "lon": 136.879793,
    "edges": [
      {
        "station": "近鉄名古屋",
        "line": "近鉄名古屋線",
        "station_cd": "3102701",
        "line_cd": "31027"
      },
      {
        "station": "黄金",
        "line": "近鉄名古屋線",
        "station_cd": "3102703",
        "line_cd": "31027"
      }
    ]
  },
  "黄金": {
    "lat": 35.156185,
    "lon": 136.870621,
    "edges": [
      {
        "station": "米野",
        "line": "近鉄名古屋線",
        "station_cd": "3102702",
        "line_cd": "31027"
      },
      {
        "station": "烏森",
        "line": "近鉄名古屋線",
        "station_cd": "3102704",
        "line_cd": "31027"
      }
    ]
  },
  "烏森": {
    "lat": 35.152935,
    "lon": 136.863895,
    "edges": [
      {
        "station": "黄金",
        "line": "近鉄名古屋線",
        "station_cd": "3102703",
        "line_cd": "31027"
      },
      {
        "station": "近鉄八田",
        "line": "近鉄名古屋線",
        "station_cd": "3102705",
        "line_cd": "31027"
      }
    ]
  },
  "近鉄八田": {
    "lat": 35.149587,
    "lon": 136.854458,
    "edges": [
      {
        "station": "烏森",
        "line": "近鉄名古屋線",
        "station_cd": "3102704",
        "line_cd": "31027"
      },
      {
        "station": "伏屋",
        "line": "近鉄名古屋線",
        "station_cd": "3102706",
        "line_cd": "31027"
      }
    ]
  },
  "伏屋": {
    "lat": 35.140183,
    "lon": 136.827841,
    "edges": [
      {
        "station": "近鉄八田",
        "line": "近鉄名古屋線",
        "station_cd": "3102705",
        "line_cd": "31027"
      },
      {
        "station": "戸田",
        "line": "近鉄名古屋線",
        "station_cd": "3102707",
        "line_cd": "31027"
      }
    ]
  },